[
  {
    "id": "ae-ajman",
    "name": "🇦🇪 Ajman, United Arab Emirates",
    "city": "Ajman",
    "country": "AE",
    "lat": 25.4209995,
    "lng": 55.4415016,
    "url": "https://images.webcamgalore.com/28227-current-webcam-Ajman.jpg",
    "refreshSec": 30,
    "width": 1280,
    "height": 720,
    "num": 1,
    "type": "jpeg",
    "lon": 55.4415016
  },
  {
    "id": "af-afintl",
    "name": "📡 Afghanistan International",
    "city": "喀布尔",
    "country": "AF",
    "lat": 34.53,
    "lng": 69.17,
    "url": "https://hls.afintl.com/hls/stream.m3u8",
    "width": 640,
    "height": 360,
    "streamType": "hls",
    "refreshSec": 0,
    "num": 2,
    "live": true,
    "type": "hls",
    "lon": 69.17
  },
  {
    "id": "aq-halley",
    "name": "❄️ 🇦🇶 Halley Station",
    "city": "Halley Research Station",
    "country": "AQ",
    "lat": -75.57,
    "lng": -26.54,
    "url": "https://images.webcamgalore.com/26164-current-webcam-Halley-Research-Station.jpg",
    "refreshSec": 15,
    "width": 1920,
    "height": 1080,
    "num": 3,
    "type": "jpeg",
    "lon": -26.54
  },
  {
    "id": "aq-south-pole",
    "name": "🧊 🇦🇶 South Pole · 南极极点",
    "city": "South Pole",
    "country": "AQ",
    "lat": -89.5,
    "lng": 45.0,
    "url": "https://images.webcamgalore.com/26625-current-webcam-South-Pole.jpg",
    "refreshSec": 15,
    "width": 1280,
    "height": 960,
    "num": 4,
    "type": "jpeg",
    "lon": 45.0
  },
  {
    "id": "aq-troll",
    "name": "🧊 🇦🇶 Troll Station · 挪威科考站",
    "city": "Troll Station",
    "country": "AQ",
    "lat": -72.02,
    "lng": 2.55,
    "url": "https://images.webcamgalore.com/21962-current-webcam-Troll-Station.jpg",
    "refreshSec": 15,
    "width": 1920,
    "height": 1080,
    "num": 5,
    "type": "jpeg",
    "lon": 2.55
  },
  {
    "id": "ar-mendoza",
    "name": "🇦🇷 Mendoza, Argentina",
    "city": "Mendoza",
    "country": "AR",
    "lat": -32.8901825,
    "lng": -68.8440475,
    "url": "https://images.webcamgalore.com/6206-current-webcam-Mendoza.jpg",
    "refreshSec": 30,
    "width": 1280,
    "height": 720,
    "num": 6,
    "type": "jpeg",
    "lon": -68.8440475
  },
  {
    "id": "ar-tandil",
    "name": "🇦🇷 Tandil, Argentina",
    "city": "Tandil",
    "country": "AR",
    "lat": -37.3422012,
    "lng": -59.1319008,
    "url": "https://images.webcamgalore.com/37245-current-webcam-Tandil.jpg",
    "refreshSec": 30,
    "width": 1920,
    "height": 1080,
    "num": 7,
    "type": "jpeg",
    "lon": -59.1319008
  },
  {
    "id": "at-innsbruck",
    "name": "🏔️ 因斯布鲁克 · 阿尔卑斯",
    "city": "Innsbruck",
    "country": "AT",
    "lat": 47.27,
    "lng": 11.4,
    "url": "https://images.webcamgalore.com/38400-current-webcam-Innsbruck.jpg",
    "refreshSec": 15,
    "width": 1920,
    "height": 1080,
    "num": 8,
    "type": "jpeg",
    "lon": 11.4
  },
  {
    "id": "at-innsbruck-2",
    "name": "🇦🇹 Innsbruck, Austria",
    "city": "Innsbruck",
    "country": "AT",
    "lat": 47.2668266,
    "lng": 11.3933372,
    "url": "https://images.webcamgalore.com/196-current-webcam-Innsbruck.jpg",
    "refreshSec": 30,
    "width": 3840,
    "height": 2160,
    "num": 9,
    "type": "jpeg",
    "lon": 11.3933372
  },
  {
    "id": "at-salzburg",
    "name": "🏰 萨尔茨堡 · 莫扎特之城",
    "city": "Salzburg",
    "country": "AT",
    "lat": 47.81,
    "lng": 13.04,
    "url": "https://images.webcamgalore.com/38450-current-webcam-Salzburg.jpg",
    "refreshSec": 15,
    "width": 1280,
    "height": 720,
    "num": 10,
    "type": "jpeg",
    "lon": 13.04
  },
  {
    "id": "au-alice-springs",
    "name": "🏜️ 🇦🇺 Alice Springs · 红土中心",
    "city": "Alice Springs",
    "country": "AU",
    "lat": -23.7,
    "lng": 133.88,
    "url": "https://images.webcamgalore.com/36960-current-webcam-Alice-Springs.jpg",
    "refreshSec": 15,
    "width": 1920,
    "height": 1080,
    "num": 11,
    "type": "jpeg",
    "lon": 133.88
  },
  {
    "id": "au-norfolk-island",
    "name": "🌴 🇦🇺 Norfolk Island · 太平洋",
    "city": "Burnt Pine",
    "country": "AU",
    "lat": -29.03,
    "lng": 167.95,
    "url": "https://images.webcamgalore.com/36972-current-webcam-Burnt-Pine-Norfolk-Island.jpg",
    "refreshSec": 15,
    "width": 1280,
    "height": 720,
    "num": 12,
    "type": "jpeg",
    "lon": 167.95
  },
  {
    "id": "au-cairns",
    "name": "🐠 🇦🇺 Cairns · 大堡礁",
    "city": "Cairns",
    "country": "AU",
    "lat": -16.92,
    "lng": 145.77,
    "url": "https://images.webcamgalore.com/36970-current-webcam-Cairns.jpg",
    "refreshSec": 15,
    "width": 1280,
    "height": 720,
    "num": 13,
    "type": "jpeg",
    "lon": 145.77
  },
  {
    "id": "au-carrum",
    "name": "🏖️ 🇦🇺 Carrum · 墨尔本海滩",
    "city": "Carrum",
    "country": "AU",
    "lat": -38.08,
    "lng": 145.12,
    "url": "https://images.webcamgalore.com/35188-current-webcam-Carrum.jpg",
    "refreshSec": 15,
    "width": 2560,
    "height": 1440,
    "num": 14,
    "type": "jpeg",
    "lon": 145.12
  },
  {
    "id": "au-christmas-island",
    "name": "🦀 🇦🇺 Christmas Island",
    "city": "Christmas Island",
    "country": "AU",
    "lat": -10.49,
    "lng": 105.63,
    "url": "https://images.webcamgalore.com/36964-current-webcam-Christmas-Island.jpg",
    "refreshSec": 15,
    "width": 1280,
    "height": 720,
    "num": 15,
    "type": "jpeg",
    "lon": 105.63
  },
  {
    "id": "au-darwin",
    "name": "🌴 🇦🇺 Darwin · 北领地",
    "city": "Darwin",
    "country": "AU",
    "lat": -12.46,
    "lng": 130.84,
    "url": "https://images.webcamgalore.com/34255-current-webcam-Darwin.jpg",
    "refreshSec": 15,
    "width": 3840,
    "height": 2160,
    "num": 16,
    "type": "jpeg",
    "lon": 130.84
  },
  {
    "id": "au-eton",
    "name": "🌾 🇦🇺 Eton · 昆士兰",
    "city": "Eton",
    "country": "AU",
    "lat": -21.27,
    "lng": 148.97,
    "url": "https://images.webcamgalore.com/21589-current-webcam-Eton.jpg",
    "refreshSec": 15,
    "width": 1920,
    "height": 1080,
    "num": 17,
    "type": "jpeg",
    "lon": 148.97
  },
  {
    "id": "au-hamilton-island",
    "name": "🏝️ 🇦🇺 Hamilton Island · 圣灵群岛",
    "city": "Hamilton Island",
    "country": "AU",
    "lat": -20.35,
    "lng": 148.96,
    "url": "https://images.webcamgalore.com/36966-current-webcam-Hamilton-Island.jpg",
    "refreshSec": 15,
    "width": 1280,
    "height": 720,
    "num": 18,
    "type": "jpeg",
    "lon": 148.96
  },
  {
    "id": "au-hobart",
    "name": "🏙️ 🇦🇺 Hobart · 塔斯马尼亚",
    "city": "Hobart",
    "country": "AU",
    "lat": -42.88,
    "lng": 147.33,
    "url": "https://images.webcamgalore.com/36967-current-webcam-Hobart.jpg",
    "refreshSec": 15,
    "width": 1280,
    "height": 720,
    "num": 19,
    "type": "jpeg",
    "lon": 147.33
  },
  {
    "id": "au-jabiru",
    "name": "🐊 🇦🇺 Jabiru · 卡卡杜",
    "city": "Jabiru",
    "country": "AU",
    "lat": -12.67,
    "lng": 132.83,
    "url": "https://images.webcamgalore.com/36961-current-webcam-Jabiru.jpg",
    "refreshSec": 15,
    "width": 1920,
    "height": 1080,
    "num": 20,
    "type": "jpeg",
    "lon": 132.83
  },
  {
    "id": "au-kalgoorlie-boulder",
    "name": "🇦🇺 Kalgoorlie Boulder, Australia",
    "city": "Kalgoorlie Boulder",
    "country": "AU",
    "lat": -30.7849998,
    "lng": 121.4589996,
    "url": "https://images.webcamgalore.com/30306-current-webcam-Kalgoorlie-Boulder.jpg",
    "refreshSec": 30,
    "width": 1280,
    "height": 720,
    "num": 21,
    "type": "jpeg",
    "lon": 121.4589996
  },
  {
    "id": "au-linley-point",
    "name": "🇦🇺 Linley Point, Australia",
    "city": "Linley Point",
    "country": "AU",
    "lat": -33.8269997,
    "lng": 151.151001,
    "url": "https://images.webcamgalore.com/15286-current-webcam-Linley-Point.jpg",
    "refreshSec": 30,
    "width": 1280,
    "height": 960,
    "num": 22,
    "type": "jpeg",
    "lon": 151.151001
  },
  {
    "id": "au-abcnews",
    "name": "📡 ABC News · 澳大利亚",
    "city": "Sydney",
    "country": "AU",
    "lat": -33.9,
    "lng": 151.2,
    "url": "https://abc-news-dmd-streams-1.akamaized.net/out/v1/701126012d044971b3fa89406a440133/index.m3u8",
    "streamType": "hls",
    "refreshSec": 15,
    "width": 1280,
    "height": 720,
    "num": 23,
    "type": "hls",
    "lon": 151.2
  },
  {
    "id": "au-sydney",
    "name": "🏙️ 悉尼 · 全景",
    "city": "Sydney",
    "country": "AU",
    "lat": -33.87,
    "lng": 151.21,
    "url": "https://admin.meteobridge.com/cam/9c25cda08544cf0db24b350b27d1e5f5/camplus.jpg",
    "refreshSec": 15,
    "num": 24,
    "width": 1280,
    "height": 720,
    "type": "jpeg",
    "lon": 151.21
  },
  {
    "id": "be-antwerp",
    "name": "💎 安特卫普 · 钻石之都",
    "city": "Antwerp",
    "country": "BE",
    "lat": 51.22,
    "lng": 4.4,
    "url": "https://images.webcamgalore.com/33200-current-webcam-Antwerp.jpg",
    "refreshSec": 15,
    "width": 1920,
    "height": 1080,
    "num": 25,
    "type": "jpeg",
    "lon": 4.4
  },
  {
    "id": "be-oostduinkerke",
    "name": "🇧🇪 Oostduinkerke, Belgium",
    "city": "Oostduinkerke",
    "country": "BE",
    "lat": 51.1336403,
    "lng": 2.6745701,
    "url": "https://images.webcamgalore.com/5451-current-webcam-Oostduinkerke.jpg",
    "refreshSec": 30,
    "width": 1280,
    "height": 720,
    "num": 26,
    "type": "jpeg",
    "lon": 2.6745701
  },
  {
    "id": "br-rio",
    "name": "🏖️ 里约热内卢 · 科帕卡巴纳",
    "city": "Rio de Janeiro",
    "country": "BR",
    "lat": -22.97,
    "lng": -43.18,
    "url": "https://images.webcamgalore.com/38629-current-webcam-Rio-de-Janeiro.jpg",
    "refreshSec": 15,
    "width": 1280,
    "height": 720,
    "num": 27,
    "type": "jpeg",
    "lon": -43.18
  },
  {
    "id": "br-agromais",
    "name": "🌾 AgroMais 巴西农业",
    "city": "圣保罗",
    "country": "BR",
    "lat": -23.55,
    "lng": -46.63,
    "url": "http://45.162.64.114/AGROMAIS/index.m3u8",
    "width": 1280,
    "height": 720,
    "streamType": "hls",
    "refreshSec": 0,
    "num": 28,
    "live": true,
    "type": "hls",
    "lon": -46.63
  },
  {
    "id": "ca-addenbroke",
    "name": "🌊 阿登布鲁克岛 · 灯站",
    "city": "Addenbroke Island",
    "country": "CA",
    "lat": 51.6,
    "lng": -127.86,
    "url": "https://images.webcamgalore.com/20917-current-webcam-Addenbroke-Island.jpg",
    "refreshSec": 15,
    "width": 800,
    "height": 600,
    "num": 29,
    "type": "jpeg",
    "lon": -127.86
  },
  {
    "id": "ca-anahim-lake",
    "name": "🏔️ 阿纳希姆湖 · 高原",
    "city": "Anahim Lake",
    "country": "CA",
    "lat": 52.47,
    "lng": -125.32,
    "url": "https://images.webcamgalore.com/20919-current-webcam-Anahim-Lake.jpg",
    "refreshSec": 15,
    "width": 800,
    "height": 600,
    "num": 30,
    "type": "jpeg",
    "lon": -125.32
  },
  {
    "id": "ca-arnprior",
    "name": "🍁 安普赖尔 · 渥太华谷",
    "city": "Arnprior",
    "country": "CA",
    "lat": 45.43,
    "lng": -76.36,
    "url": "https://images.webcamgalore.com/20888-current-webcam-Arnprior.jpg",
    "refreshSec": 15,
    "width": 800,
    "height": 600,
    "num": 31,
    "type": "jpeg",
    "lon": -76.36
  },
  {
    "id": "ca-atlin",
    "name": "❄️ 阿特林 · 育空边境",
    "city": "Atlin",
    "country": "CA",
    "lat": 59.58,
    "lng": -133.72,
    "url": "https://images.webcamgalore.com/20920-current-webcam-Atlin.jpg",
    "refreshSec": 15,
    "width": 800,
    "height": 600,
    "num": 32,
    "type": "jpeg",
    "lon": -133.72
  },
  {
    "id": "ca-attawapiskat",
    "name": "❄️ 阿塔瓦皮斯基特 · 詹姆斯湾",
    "city": "Attawapiskat",
    "country": "CA",
    "lat": 52.93,
    "lng": -82.43,
    "url": "https://images.webcamgalore.com/20887-current-webcam-Attawapiskat.jpg",
    "refreshSec": 15,
    "width": 800,
    "height": 600,
    "num": 33,
    "type": "jpeg",
    "lon": -82.43
  },
  {
    "id": "ca-bella-bella",
    "name": "⛵ 贝拉贝拉 · 内湾航道",
    "city": "Bella Bella",
    "country": "CA",
    "lat": 52.16,
    "lng": -128.14,
    "url": "https://images.webcamgalore.com/20921-current-webcam-Bella-Bella.jpg",
    "refreshSec": 15,
    "width": 800,
    "height": 600,
    "num": 34,
    "type": "jpeg",
    "lon": -128.14
  },
  {
    "id": "ca-burns-lake",
    "name": "❄️ 伯恩斯湖 · 北卑诗",
    "city": "Burns Lake",
    "country": "CA",
    "lat": 54.23,
    "lng": -125.76,
    "url": "https://images.webcamgalore.com/20922-current-webcam-Burns-Lake.jpg",
    "refreshSec": 15,
    "width": 800,
    "height": 600,
    "num": 35,
    "type": "jpeg",
    "lon": -125.76
  },
  {
    "id": "ca-coleman",
    "name": "🏔️ 科尔曼 · 落基山隘",
    "city": "Coleman",
    "country": "CA",
    "lat": 49.64,
    "lng": -114.5,
    "url": "https://images.webcamgalore.com/20905-current-webcam-Coleman.jpg",
    "refreshSec": 15,
    "width": 800,
    "height": 600,
    "num": 36,
    "type": "jpeg",
    "lon": -114.5
  },
  {
    "id": "ca-gore-bay",
    "name": "🌊 戈尔湾 · 休伦湖",
    "city": "Gore Bay",
    "country": "CA",
    "lat": 45.92,
    "lng": -82.47,
    "url": "https://images.webcamgalore.com/20868-current-webcam-Gore-Bay.jpg",
    "refreshSec": 15,
    "width": 800,
    "height": 600,
    "num": 37,
    "type": "jpeg",
    "lon": -82.47
  },
  {
    "id": "ca-halifax",
    "name": "⚓ 哈利法克斯 · 大西洋",
    "city": "Halifax",
    "country": "CA",
    "lat": 44.65,
    "lng": -63.57,
    "url": "https://images.webcamgalore.com/20868-current-webcam-Halifax.jpg",
    "refreshSec": 15,
    "width": 800,
    "height": 600,
    "num": 38,
    "type": "jpeg",
    "lon": -63.57
  },
  {
    "id": "ca-mavillette",
    "name": "🇨🇦 Mavillette, Canada",
    "city": "Mavillette",
    "country": "CA",
    "lat": 44.0845985,
    "lng": -66.1837997,
    "url": "https://images.webcamgalore.com/28938-current-webcam-Mavillette.jpg",
    "refreshSec": 30,
    "width": 1280,
    "height": 720,
    "num": 39,
    "type": "jpeg",
    "lon": -66.1837997
  },
  {
    "id": "ca-ottawa",
    "name": "🏛️ 渥太华 · 国会山",
    "city": "Ottawa",
    "country": "CA",
    "lat": 45.42,
    "lng": -75.69,
    "url": "https://images.webcamgalore.com/117-current-webcam-Ottawa.jpg",
    "refreshSec": 15,
    "width": 1920,
    "height": 1080,
    "num": 40,
    "type": "jpeg",
    "lon": -75.69
  },
  {
    "id": "ca-port-alberni",
    "name": "🏔️ 艾伯尼港 · 温哥华岛",
    "city": "Port Alberni",
    "country": "CA",
    "lat": 49.23,
    "lng": -124.8,
    "url": "https://images.webcamgalore.com/20939-current-webcam-Port-Alberni.jpg",
    "refreshSec": 15,
    "width": 800,
    "height": 600,
    "num": 41,
    "type": "jpeg",
    "lon": -124.8
  },
  {
    "id": "ca-prince-rupert",
    "name": "🌊 鲁珀特王子港 · 太平洋",
    "city": "Prince Rupert",
    "country": "CA",
    "lat": 54.31,
    "lng": -130.32,
    "url": "https://images.webcamgalore.com/20949-current-webcam-Prince-Rupert.jpg",
    "refreshSec": 15,
    "width": 800,
    "height": 600,
    "num": 42,
    "type": "jpeg",
    "lon": -130.32
  },
  {
    "id": "ca-sherbrooke",
    "name": "🏰 舍布鲁克 · 东部城镇",
    "city": "Sherbrooke",
    "country": "CA",
    "lat": 45.4,
    "lng": -71.89,
    "url": "https://images.webcamgalore.com/20853-current-webcam-Sherbrooke.jpg",
    "refreshSec": 15,
    "width": 800,
    "height": 600,
    "num": 43,
    "type": "jpeg",
    "lon": -71.89
  },
  {
    "id": "ca-ucluelet",
    "name": "🌊 尤克卢利特 · 冲浪",
    "city": "Ucluelet",
    "country": "CA",
    "lat": 48.94,
    "lng": -125.55,
    "url": "https://images.webcamgalore.com/20918-current-webcam-Ucluelet.jpg",
    "refreshSec": 15,
    "width": 800,
    "height": 600,
    "num": 44,
    "type": "jpeg",
    "lon": -125.55
  },
  {
    "id": "ca-vanderhoof",
    "name": "🌲 范德胡夫 · 北卑诗",
    "city": "Vanderhoof",
    "country": "CA",
    "lat": 54.02,
    "lng": -124.01,
    "url": "https://images.webcamgalore.com/29123-current-webcam-Vanderhoof.jpg",
    "refreshSec": 15,
    "width": 1280,
    "height": 720,
    "num": 45,
    "type": "jpeg",
    "lon": -124.01
  },
  {
    "id": "ca-vernon",
    "name": "🍇 弗农 · 欧肯纳根谷",
    "city": "Vernon",
    "country": "CA",
    "lat": 50.27,
    "lng": -119.27,
    "url": "https://images.webcamgalore.com/21047-current-webcam-Vernon.jpg",
    "refreshSec": 15,
    "width": 800,
    "height": 600,
    "num": 46,
    "type": "jpeg",
    "lon": -119.27
  },
  {
    "id": "cl-cerro-tololo",
    "name": "🇨🇱 Cerro Tololo, Chile",
    "city": "Cerro Tololo",
    "country": "CL",
    "lat": -30.1697006,
    "lng": -70.8065033,
    "url": "https://images.webcamgalore.com/16758-current-webcam-Cerro-Tololo.jpg",
    "refreshSec": 30,
    "width": 1920,
    "height": 1080,
    "num": 47,
    "type": "jpeg",
    "lon": -70.8065033
  },
  {
    "id": "cl-punta-arenas",
    "name": "🇨🇱 Punta Arenas, Chile",
    "city": "Punta Arenas",
    "country": "CL",
    "lat": -53.0052986,
    "lng": -70.8431015,
    "url": "https://images.webcamgalore.com/37057-current-webcam-Punta-Arenas.jpg",
    "refreshSec": 30,
    "width": 1280,
    "height": 720,
    "num": 48,
    "type": "jpeg",
    "lon": -70.8431015
  },
  {
    "id": "cn-banquiao",
    "name": "🏙️ 🇨🇳 Banquiao",
    "city": "Banquiao",
    "country": "CN",
    "lat": 25.0,
    "lng": 102.7,
    "url": "https://images.webcamgalore.com/36801-current-webcam-Banquiao.jpg",
    "refreshSec": 15,
    "width": 1280,
    "height": 720,
    "num": 49,
    "type": "jpeg",
    "lon": 102.7
  },
  {
    "id": "cn-beijing",
    "name": "🏯 🇨🇳 Beijing",
    "city": "Beijing",
    "country": "CN",
    "lat": 39.9,
    "lng": 116.4,
    "url": "https://images.webcamgalore.com/37048-current-webcam-Beijing.jpg",
    "refreshSec": 15,
    "width": 4406,
    "height": 3264,
    "num": 50,
    "type": "jpeg",
    "lon": 116.4
  },
  {
    "id": "cn-chengde",
    "name": "🏔️ 🇨🇳 Chengde",
    "city": "Chengde",
    "country": "CN",
    "lat": 40.9,
    "lng": 117.9,
    "url": "https://images.webcamgalore.com/36664-current-webcam-Chengde.jpg",
    "refreshSec": 15,
    "width": 1280,
    "height": 720,
    "num": 51,
    "type": "jpeg",
    "lon": 117.9
  },
  {
    "id": "cn-chengdu",
    "name": "🐼 🇨🇳 Chengdu",
    "city": "Chengdu",
    "country": "CN",
    "lat": 30.6,
    "lng": 104.1,
    "url": "https://images.webcamgalore.com/34692-current-webcam-Chengdu.jpg",
    "refreshSec": 15,
    "width": 1280,
    "height": 720,
    "num": 52,
    "type": "jpeg",
    "lon": 104.1
  },
  {
    "id": "cn-dunhuang",
    "name": "🏜️ 🇨🇳 Dunhuang",
    "city": "Dunhuang",
    "country": "CN",
    "lat": 40.1,
    "lng": 94.7,
    "url": "https://images.webcamgalore.com/28638-current-webcam-Dunhuang.jpg",
    "refreshSec": 15,
    "width": 1280,
    "height": 720,
    "num": 53,
    "type": "jpeg",
    "lon": 94.7
  },
  {
    "id": "cn-fenghuang",
    "name": "🏘️ 🇨🇳 Fenghuang",
    "city": "Fenghuang",
    "country": "CN",
    "lat": 28.0,
    "lng": 109.6,
    "url": "https://images.webcamgalore.com/12195-current-webcam-Fenghuang.jpg",
    "refreshSec": 15,
    "width": 1920,
    "height": 1080,
    "num": 54,
    "type": "jpeg",
    "lon": 109.6
  },
  {
    "id": "cn-gubeikou",
    "name": "🏯 🇨🇳 Gubeikou",
    "city": "Gubeikou",
    "country": "CN",
    "lat": 40.6,
    "lng": 117.1,
    "url": "https://images.webcamgalore.com/34687-current-webcam-Gubeikou.jpg",
    "refreshSec": 15,
    "width": 1280,
    "height": 720,
    "num": 55,
    "type": "jpeg",
    "lon": 117.1
  },
  {
    "id": "cn-hong-kong",
    "name": "🇨🇳 Hong Kong, China",
    "city": "Hong Kong",
    "country": "CN",
    "lat": 22.2672005,
    "lng": 114.3010025,
    "url": "https://images.webcamgalore.com/34875-current-webcam-Hong-Kong.jpg",
    "refreshSec": 30,
    "width": 1920,
    "height": 1080,
    "num": 56,
    "type": "jpeg",
    "lon": 114.3010025
  },
  {
    "id": "cn-huanglong",
    "name": "🇨🇳 Huanglong, China",
    "city": "Huanglong",
    "country": "CN",
    "lat": 32.7486992,
    "lng": 103.822998,
    "url": "https://images.webcamgalore.com/28648-current-webcam-Huanglong.jpg",
    "refreshSec": 30,
    "width": 1280,
    "height": 720,
    "num": 57,
    "type": "jpeg",
    "lon": 103.822998
  },
  {
    "id": "cn-nanjing",
    "name": "🇨🇳 Nanjing, China",
    "city": "Nanjing",
    "country": "CN",
    "lat": 32.107399,
    "lng": 118.7549973,
    "url": "https://images.webcamgalore.com/36798-current-webcam-Nanjing.jpg",
    "refreshSec": 30,
    "width": 1920,
    "height": 1080,
    "num": 58,
    "type": "jpeg",
    "lon": 118.7549973
  },
  {
    "id": "cn-yunhe1",
    "name": "🌄 云和 · 城市风光",
    "city": "云和",
    "country": "CN",
    "lat": 28.11,
    "lng": 119.57,
    "url": "https://l.cztvcloud.com/channels/lantian/SXyunhe1/720p.m3u8",
    "refreshSec": 99,
    "width": 1280,
    "height": 720,
    "streamType": "hls",
    "num": 59,
    "type": "hls",
    "lon": 119.57
  },
  {
    "id": "cn-cndfilm",
    "name": "📺 中学生电影频道",
    "city": "北京",
    "country": "CN",
    "lat": 39.9,
    "lng": 117.6,
    "url": "http://live-play.zxstv.com.cn/zhongxuesheng/zhongxuesheng.m3u8",
    "refreshSec": 99,
    "width": 1280,
    "height": 720,
    "streamType": "hls",
    "num": 60,
    "type": "hls",
    "lon": 117.6
  },
  {
    "id": "cn-cctv1",
    "name": "📺 CCTV-1 综合",
    "city": "北京",
    "country": "CN",
    "lat": 39.9,
    "lng": 116.4,
    "url": "https://liveplay-srs.voc.com.cn/hls/tv/134_180adf.m3u8",
    "refreshSec": 99,
    "width": 1280,
    "height": 720,
    "streamType": "hls",
    "num": 61,
    "type": "hls",
    "lon": 116.4
  },
  {
    "id": "cn-cgtn",
    "name": "🌐 CGTN 英语新闻",
    "city": "北京",
    "country": "CN",
    "lat": 39.9,
    "lng": 117.3,
    "url": "https://english-livebkali.cgtn.com/live/encgtn.m3u8",
    "refreshSec": 99,
    "width": 1920,
    "height": 1080,
    "streamType": "hls",
    "num": 62,
    "type": "hls",
    "lon": 117.3
  },
  {
    "id": "cn-cctv9",
    "name": "📺 CCTV-9 纪录",
    "city": "北京",
    "country": "CN",
    "lat": 39.9,
    "lng": 117.0,
    "url": "https://xykt-fix.github.io/Y77.m3u8",
    "refreshSec": 99,
    "width": 1920,
    "height": 1080,
    "streamType": "hls",
    "num": 63,
    "type": "hls",
    "lon": 117.0
  },
  {
    "id": "cn-cctv15-1080p",
    "name": "📺 CCTV-15 音乐",
    "city": "北京",
    "country": "CN",
    "lat": 39.9,
    "lng": 116.7,
    "url": "https://xykt-fix.github.io/play/a02e/index.m3u8",
    "refreshSec": 99,
    "width": 1920,
    "height": 1080,
    "streamType": "hls",
    "num": 64,
    "type": "hls",
    "lon": 116.7
  },
  {
    "id": "cn-shengzhou",
    "name": "🏞️ 嵊州 · 城市风光",
    "city": "嵊州",
    "country": "CN",
    "lat": 29.59,
    "lng": 120.82,
    "url": "https://l.cztvcloud.com/channels/lantian/SXshengzhou1/720p.m3u8",
    "refreshSec": 99,
    "width": 1280,
    "height": 720,
    "streamType": "hls",
    "num": 65,
    "type": "hls",
    "lon": 120.82
  },
  {
    "id": "cn-pinghu1",
    "name": "🌊 平湖 · 城市风光",
    "city": "平湖",
    "country": "CN",
    "lat": 30.68,
    "lng": 121.02,
    "url": "https://l.cztvcloud.com/channels/lantian/SXpinghu1/720p.m3u8",
    "refreshSec": 99,
    "width": 1280,
    "height": 720,
    "streamType": "hls",
    "num": 66,
    "type": "hls",
    "lon": 121.02
  },
  {
    "id": "cn-zhangjiajie",
    "name": "🏔️ 张家界 · 武陵源",
    "city": "张家界",
    "country": "CN",
    "lat": 29.12,
    "lng": 110.48,
    "url": "https://images.webcamgalore.com/10966-current-webcam-Zhangjiajie.jpg",
    "refreshSec": 15,
    "width": 1280,
    "height": 720,
    "streamType": "jpeg",
    "num": 67,
    "type": "jpeg",
    "lon": 110.48
  },
  {
    "id": "cn-songyang",
    "name": "🏡 松阳 · 城市风光",
    "city": "松阳",
    "country": "CN",
    "lat": 28.45,
    "lng": 119.48,
    "url": "https://l.cztvcloud.com/channels/lantian/SXsongyang1/720p.m3u8",
    "refreshSec": 99,
    "width": 1280,
    "height": 720,
    "streamType": "hls",
    "num": 68,
    "type": "hls",
    "lon": 119.48
  },
  {
    "id": "cn-shangyu",
    "name": "🏙️ 上虞 · 城市风光",
    "city": "绍兴",
    "country": "CN",
    "lat": 30.03,
    "lng": 120.87,
    "url": "https://l.cztvcloud.com/channels/lantian/SXshangyu1/720p.m3u8",
    "width": 1280,
    "height": 720,
    "streamType": "hls",
    "refreshSec": 0,
    "num": 69,
    "live": true,
    "type": "hls",
    "lon": 120.87
  },
  {
    "id": "cn-jinyun1",
    "name": "🏞️ 缙云 · 城市风光",
    "city": "缙云",
    "country": "CN",
    "lat": 28.66,
    "lng": 120.09,
    "url": "https://l.cztvcloud.com/channels/lantian/SXjinyun1/720p.m3u8",
    "refreshSec": 99,
    "width": 1280,
    "height": 720,
    "streamType": "hls",
    "num": 70,
    "type": "hls",
    "lon": 120.09
  },
  {
    "id": "cn-xiaoshan1",
    "name": "🌉 萧山 · 城市风光",
    "city": "萧山",
    "country": "CN",
    "lat": 30.19,
    "lng": 120.26,
    "url": "https://l.cztvcloud.com/channels/lantian/SXxiaoshan1/720p.m3u8",
    "refreshSec": 99,
    "width": 1280,
    "height": 720,
    "streamType": "hls",
    "num": 71,
    "type": "hls",
    "lon": 120.26
  },
  {
    "id": "cn-zhuji",
    "name": "🏞️ 诸暨 · 城市风光",
    "city": "诸暨",
    "country": "CN",
    "lat": 29.71,
    "lng": 120.24,
    "url": "https://l.cztvcloud.com/channels/lantian/SXzhuji3/720p.m3u8",
    "refreshSec": 99,
    "width": 1280,
    "height": 720,
    "streamType": "hls",
    "num": 72,
    "type": "hls",
    "lon": 120.24
  },
  {
    "id": "cn-xiangshan",
    "name": "⛵ 象山 · 城市风光",
    "city": "象山",
    "country": "CN",
    "lat": 29.48,
    "lng": 121.87,
    "url": "https://l.cztvcloud.com/channels/lantian/SXxiangshan1/720p.m3u8",
    "refreshSec": 99,
    "width": 1280,
    "height": 720,
    "streamType": "hls",
    "num": 73,
    "type": "hls",
    "lon": 121.87
  },
  {
    "id": "cn-qingtian",
    "name": "🏞️ 青田 · 城市风光",
    "city": "青田",
    "country": "CN",
    "lat": 28.14,
    "lng": 120.29,
    "url": "https://l.cztvcloud.com/channels/lantian/SXqingtian1/720p.m3u8",
    "refreshSec": 99,
    "width": 1280,
    "height": 720,
    "streamType": "hls",
    "num": 74,
    "type": "hls",
    "lon": 120.29
  },
  {
    "id": "cn-longquan",
    "name": "⛰️ 龙泉 · 城市风光",
    "city": "龙泉",
    "country": "CN",
    "lat": 28.07,
    "lng": 119.14,
    "url": "https://l.cztvcloud.com/channels/lantian/SXlongquan1/720p.m3u8",
    "refreshSec": 99,
    "width": 1280,
    "height": 720,
    "streamType": "hls",
    "num": 75,
    "type": "hls",
    "lon": 119.14
  },
  {
    "id": "cn-longyou1",
    "name": "🏞️ 龙游 · 城市风光",
    "city": "龙游",
    "country": "CN",
    "lat": 29.03,
    "lng": 119.17,
    "url": "https://l.cztvcloud.com/channels/lantian/SXlongyou1/720p.m3u8",
    "refreshSec": 99,
    "width": 1280,
    "height": 720,
    "streamType": "hls",
    "num": 76,
    "type": "hls",
    "lon": 119.17
  },
  {
    "id": "cz-prague",
    "name": "🏰 布拉格 · 查理大桥",
    "city": "Prague",
    "country": "CZ",
    "lat": 50.09,
    "lng": 14.42,
    "url": "https://images.webcamgalore.com/33000-current-webcam-Prague.jpg",
    "refreshSec": 15,
    "width": 1920,
    "height": 1080,
    "num": 77,
    "type": "jpeg",
    "lon": 14.42
  },
  {
    "id": "de-ahlbeck-usedom",
    "name": "🏖️ 🇩🇪 Ahlbeck Usedom",
    "city": "Ahlbeck Usedom",
    "country": "DE",
    "lat": 53.94,
    "lng": 14.19,
    "url": "https://images.webcamgalore.com/26424-current-webcam-Ahlbeck-Usedom.jpg",
    "refreshSec": 15,
    "width": 2048,
    "height": 1536,
    "num": 78,
    "type": "jpeg",
    "lon": 14.19
  },
  {
    "id": "de-grosspoesna",
    "name": "🇩🇪 Grosspoesna, Germany",
    "city": "Grosspoesna",
    "country": "DE",
    "lat": 51.2675018,
    "lng": 12.4975004,
    "url": "https://images.webcamgalore.com/38325-current-webcam-Grosspoesna.jpg",
    "refreshSec": 30,
    "width": 3840,
    "height": 2160,
    "num": 79,
    "type": "jpeg",
    "lon": 12.4975004
  },
  {
    "id": "de-hamburg",
    "name": "🇩🇪 Hamburg, Germany",
    "city": "Hamburg",
    "country": "DE",
    "lat": 53.5641212,
    "lng": 9.7503662,
    "url": "https://images.webcamgalore.com/2375-current-webcam-Hamburg.jpg",
    "refreshSec": 30,
    "width": 1920,
    "height": 1080,
    "num": 80,
    "type": "jpeg",
    "lon": 9.7503662
  },
  {
    "id": "de-metten",
    "name": "🇩🇪 Metten, Germany",
    "city": "Metten",
    "country": "DE",
    "lat": 48.8558998,
    "lng": 12.9173002,
    "url": "https://images.webcamgalore.com/13487-current-webcam-Metten.jpg",
    "refreshSec": 30,
    "width": 1280,
    "height": 960,
    "num": 81,
    "type": "jpeg",
    "lon": 12.9173002
  },
  {
    "id": "de-rathenow",
    "name": "🇩🇪 Rathenow, Germany",
    "city": "Rathenow",
    "country": "DE",
    "lat": 52.6060982,
    "lng": 12.3413,
    "url": "https://images.webcamgalore.com/13904-current-webcam-Rathenow.jpg",
    "refreshSec": 30,
    "width": 1600,
    "height": 1200,
    "num": 82,
    "type": "jpeg",
    "lon": 12.3413
  },
  {
    "id": "de-dasding",
    "name": "🎸 DasDing · 德国青年文化",
    "city": "Stuttgart",
    "country": "DE",
    "lat": 48.8,
    "lng": 9.2,
    "url": "https://swrdasdingvr-hls.akamaized.net/hls/live/2018681/dasdingvr/master.m3u8",
    "streamType": "hls",
    "refreshSec": 15,
    "width": 1920,
    "height": 1080,
    "num": 83,
    "type": "hls",
    "lon": 9.2
  },
  {
    "id": "dk-aalborg",
    "name": "🇩🇰 Aalborg, Denmark",
    "city": "Aalborg",
    "country": "DK",
    "lat": 57.0514984,
    "lng": 9.9676504,
    "url": "https://images.webcamgalore.com/27115-current-webcam-Aalborg.jpg",
    "refreshSec": 30,
    "width": 1280,
    "height": 720,
    "num": 84,
    "type": "jpeg",
    "lon": 9.9676504
  },
  {
    "id": "dk-fanoe",
    "name": "🏖️ 🇩🇰 Fanoe",
    "city": "Fanoe",
    "country": "DK",
    "lat": 55.41,
    "lng": 8.4,
    "url": "https://images.webcamgalore.com/33383-current-webcam-Fanoe.jpg",
    "refreshSec": 15,
    "width": 1920,
    "height": 1080,
    "num": 85,
    "type": "jpeg",
    "lon": 8.4
  },
  {
    "id": "dk-hou",
    "name": "🇩🇰 Hou, Denmark",
    "city": "Hou",
    "country": "DK",
    "lat": 57.0566483,
    "lng": 10.3776169,
    "url": "https://images.webcamgalore.com/6230-current-webcam-Hou.jpg",
    "refreshSec": 30,
    "width": 1280,
    "height": 720,
    "num": 86,
    "type": "jpeg",
    "lon": 10.3776169
  },
  {
    "id": "do-bayahibe",
    "name": "🇩🇴 Bayahibe, Dominican Republic",
    "city": "Bayahibe",
    "country": "DO",
    "lat": 18.3337994,
    "lng": -68.8085022,
    "url": "https://images.webcamgalore.com/29888-current-webcam-Bayahibe.jpg",
    "refreshSec": 30,
    "width": 1280,
    "height": 720,
    "num": 87,
    "type": "jpeg",
    "lon": -68.8085022
  },
  {
    "id": "do-acntv",
    "name": "📡 ACN TV 多米尼加",
    "city": "圣多明各",
    "country": "DO",
    "lat": 18.49,
    "lng": -69.93,
    "url": "https://cdn.acnlive.net/LiveApp/streams/hold_the_line.m3u8",
    "width": 640,
    "height": 360,
    "streamType": "hls",
    "refreshSec": 0,
    "num": 88,
    "live": true,
    "type": "hls",
    "lon": -69.93
  },
  {
    "id": "ee-tallinn",
    "name": "🇪🇪 Tallinn, Estonia",
    "city": "Tallinn",
    "country": "EE",
    "lat": 59.4374008,
    "lng": 24.7548008,
    "url": "https://images.webcamgalore.com/30105-current-webcam-Tallinn.jpg",
    "refreshSec": 30,
    "width": 1280,
    "height": 720,
    "num": 89,
    "type": "jpeg",
    "lon": 24.7548008
  },
  {
    "id": "eg-alexandria",
    "name": "🇪🇬 Alexandria, Egypt",
    "city": "Alexandria",
    "country": "EG",
    "lat": 31.2087994,
    "lng": 29.9092999,
    "url": "https://images.webcamgalore.com/28868-current-webcam-Alexandria.jpg",
    "refreshSec": 30,
    "width": 1280,
    "height": 720,
    "num": 90,
    "type": "jpeg",
    "lon": 29.9092999
  },
  {
    "id": "eg-el-gouna",
    "name": "🇪🇬 El Gouna, Egypt",
    "city": "El Gouna",
    "country": "EG",
    "lat": 27.4360542,
    "lng": 33.6567078,
    "url": "https://images.webcamgalore.com/23818-current-webcam-El-Gouna.jpg",
    "refreshSec": 30,
    "width": 1280,
    "height": 720,
    "num": 91,
    "type": "jpeg",
    "lon": 33.6567078
  },
  {
    "id": "eg-giza",
    "name": "🇪🇬 Giza, Egypt",
    "city": "Giza",
    "country": "EG",
    "lat": 29.9748001,
    "lng": 31.1401005,
    "url": "https://images.webcamgalore.com/26327-current-webcam-Giza.jpg",
    "refreshSec": 30,
    "width": 1280,
    "height": 720,
    "num": 92,
    "type": "jpeg",
    "lon": 31.1401005
  },
  {
    "id": "eg-hurghada",
    "name": "🇪🇬 Hurghada, Egypt",
    "city": "Hurghada",
    "country": "EG",
    "lat": 27.1334724,
    "lng": 33.8303375,
    "url": "https://images.webcamgalore.com/821-current-webcam-Hurghada.jpg",
    "refreshSec": 30,
    "width": 1920,
    "height": 1080,
    "num": 93,
    "type": "jpeg",
    "lon": 33.8303375
  },
  {
    "id": "eg-safaga",
    "name": "🇪🇬 Safaga, Egypt",
    "city": "Safaga",
    "country": "EG",
    "lat": 26.7296658,
    "lng": 33.9385681,
    "url": "https://images.webcamgalore.com/1786-current-webcam-Safaga.jpg",
    "refreshSec": 30,
    "width": 1280,
    "height": 960,
    "num": 94,
    "type": "jpeg",
    "lon": 33.9385681
  },
  {
    "id": "es-a-coruna",
    "name": "🌊 🇪🇸 A Coruna",
    "city": "A Coruna",
    "country": "ES",
    "lat": 43.37,
    "lng": -8.4,
    "url": "https://images.webcamgalore.com/33601-current-webcam-A-Coruna.jpg",
    "refreshSec": 15,
    "width": 1920,
    "height": 1080,
    "num": 95,
    "type": "jpeg",
    "lon": -8.4
  },
  {
    "id": "es-jerez-de-la-frontera",
    "name": "🇪🇸 Jerez de la Frontera, Spain",
    "city": "Jerez de la Frontera",
    "country": "ES",
    "lat": 36.6823921,
    "lng": -6.137238,
    "url": "https://images.webcamgalore.com/3193-current-webcam-Jerez-de-la-Frontera.jpg",
    "refreshSec": 30,
    "width": 1280,
    "height": 720,
    "num": 96,
    "type": "jpeg",
    "lon": -6.137238
  },
  {
    "id": "es-port-de-pollenca-majorca",
    "name": "🇪🇸 Port de Pollenca Majorca, Spain",
    "city": "Port de Pollenca Majorca",
    "country": "ES",
    "lat": 39.8638,
    "lng": 3.0926099,
    "url": "https://images.webcamgalore.com/19114-current-webcam-Port-de-Pollenca-Majorca.jpg",
    "refreshSec": 30,
    "width": 1920,
    "height": 1080,
    "num": 97,
    "type": "jpeg",
    "lon": 3.0926099
  },
  {
    "id": "es-roses",
    "name": "🇪🇸 Roses, Spain",
    "city": "Roses",
    "country": "ES",
    "lat": 42.262001,
    "lng": 3.1512301,
    "url": "https://images.webcamgalore.com/34296-current-webcam-Roses.jpg",
    "refreshSec": 30,
    "width": 1920,
    "height": 1080,
    "num": 98,
    "type": "jpeg",
    "lon": 3.1512301
  },
  {
    "id": "es-3catbeauties",
    "name": "🎬 3Cat · 加泰罗尼亚娱乐",
    "city": "巴塞罗那",
    "country": "ES",
    "lat": 41.39,
    "lng": 2.17,
    "url": "https://directes-tv-int.3catdirectes.cat/live-content/beauties-hls/master.m3u8",
    "width": 1920,
    "height": 1080,
    "streamType": "hls",
    "refreshSec": 0,
    "num": 99,
    "live": true,
    "type": "hls",
    "lon": 2.17
  },
  {
    "id": "es-canal324",
    "name": "📡 3Cat Canal 324 · 加泰罗尼亚",
    "city": "巴塞罗那",
    "country": "ES",
    "lat": 41.39,
    "lng": 2.17,
    "url": "https://directes-tv-int.3catdirectes.cat/live-origin/canal324-hls/master.m3u8",
    "refreshSec": 0,
    "num": 100,
    "width": 1920,
    "height": 1080,
    "streamType": "hls",
    "live": true,
    "type": "hls",
    "lon": 2.17
  },
  {
    "id": "fi-helsinki",
    "name": "🌲 赫尔辛基 · 首都",
    "city": "Helsinki",
    "country": "FI",
    "lat": 60.244,
    "lng": 24.948,
    "url": "https://weathercam.digitraffic.fi/C0151301.jpg",
    "refreshSec": 10,
    "num": 101,
    "width": 1280,
    "height": 720,
    "type": "jpeg",
    "lon": 24.948
  },
  {
    "id": "fi-ruka",
    "name": "🇫🇮 Ruka, Finland",
    "city": "Ruka",
    "country": "FI",
    "lat": 66.1713028,
    "lng": 29.1506004,
    "url": "https://images.webcamgalore.com/36484-current-webcam-Ruka.jpg",
    "refreshSec": 30,
    "width": 1920,
    "height": 1280,
    "num": 102,
    "type": "jpeg",
    "lon": 29.1506004
  },
  {
    "id": "fi-turku",
    "name": "🌊 图尔库 · 海岸",
    "city": "Turku",
    "country": "FI",
    "lat": 60.5,
    "lng": 22.29,
    "url": "https://weathercam.digitraffic.fi/C0252001.jpg",
    "refreshSec": 10,
    "num": 103,
    "width": 1280,
    "height": 720,
    "type": "jpeg",
    "lon": 22.29
  },
  {
    "id": "fo-leirvik",
    "name": "🇫🇴 Leirvik, Faroe Islands",
    "city": "Leirvik",
    "country": "FO",
    "lat": 62.210701,
    "lng": -6.7065001,
    "url": "https://images.webcamgalore.com/26610-current-webcam-Leirvik.jpg",
    "refreshSec": 30,
    "width": 1280,
    "height": 960,
    "num": 104,
    "type": "jpeg",
    "lon": -6.7065001
  },
  {
    "id": "fr-abries",
    "name": "🏔️ 🇫🇷 Abries",
    "city": "Abries",
    "country": "FR",
    "lat": 44.8,
    "lng": 6.93,
    "url": "https://images.webcamgalore.com/20565-current-webcam-Abries.jpg",
    "refreshSec": 15,
    "width": 1920,
    "height": 1080,
    "num": 105,
    "type": "jpeg",
    "lon": 6.93
  },
  {
    "id": "fr-la-chevroliere",
    "name": "🇫🇷 La Chevroliere, France",
    "city": "La Chevroliere",
    "country": "FR",
    "lat": 47.0979996,
    "lng": -1.6377,
    "url": "https://images.webcamgalore.com/35745-current-webcam-La-Chevroliere.jpg",
    "refreshSec": 30,
    "width": 3510,
    "height": 1755,
    "num": 106,
    "type": "jpeg",
    "lon": -1.6377
  },
  {
    "id": "fr-la-tranche-sur-mer",
    "name": "🇫🇷 La Tranche sur Mer, France",
    "city": "La Tranche sur Mer",
    "country": "FR",
    "lat": 46.3580017,
    "lng": -1.47539,
    "url": "https://images.webcamgalore.com/35090-current-webcam-La-Tranche-sur-Mer.jpg",
    "refreshSec": 30,
    "width": 1280,
    "height": 720,
    "num": 107,
    "type": "jpeg",
    "lon": -1.47539
  },
  {
    "id": "fr-euronews",
    "name": "📡 Euronews · 法国",
    "city": "Lyon",
    "country": "FR",
    "lat": 45.8,
    "lng": 4.8,
    "url": "https://cdn-euronews.akamaized.net/live/eds/africanews-fr/25050/index.m3u8",
    "streamType": "hls",
    "refreshSec": 15,
    "width": 1280,
    "height": 720,
    "num": 108,
    "type": "hls",
    "lon": 4.8
  },
  {
    "id": "fr-france24ar",
    "name": "📡 France 24 Arabic",
    "city": "Paris",
    "country": "FR",
    "lat": 48.9,
    "lng": 2.3,
    "url": "https://live.france24.com/hls/live/2037222-b/F24_AR_HI_HLS/master_5000.m3u8",
    "streamType": "hls",
    "refreshSec": 15,
    "width": 640,
    "height": 360,
    "num": 109,
    "type": "hls",
    "lon": 2.3
  },
  {
    "id": "fr-bfmbusiness",
    "name": "💼 BFM Business · 法国",
    "city": "Paris",
    "country": "FR",
    "lat": 48.5,
    "lng": 2.8,
    "url": "https://live-cdn-bfmtvlyo-euw1.bfmtv.bct.nextradiotv.com/master.m3u8",
    "streamType": "hls",
    "refreshSec": 15,
    "width": 960,
    "height": 540,
    "num": 110,
    "type": "hls",
    "lon": 2.8
  },
  {
    "id": "fr-seignosse",
    "name": "🇫🇷 Seignosse, France",
    "city": "Seignosse",
    "country": "FR",
    "lat": 43.698101,
    "lng": -1.43823,
    "url": "https://images.webcamgalore.com/25303-current-webcam-Seignosse.jpg",
    "refreshSec": 30,
    "width": 1920,
    "height": 1080,
    "num": 111,
    "type": "jpeg",
    "lon": -1.43823
  },
  {
    "id": "gb-edinburgh",
    "name": "🏰 爱丁堡 · 古城堡",
    "city": "Edinburgh",
    "country": "GB",
    "lat": 55.95,
    "lng": -3.19,
    "url": "https://images.webcamgalore.com/2900-current-webcam-Edinburgh.jpg",
    "refreshSec": 15,
    "width": 1280,
    "height": 960,
    "num": 112,
    "type": "jpeg",
    "lon": -3.19
  },
  {
    "id": "gb-london",
    "name": "🏙️ 伦敦 · 泰晤士河",
    "city": "London",
    "country": "GB",
    "lat": 51.51,
    "lng": -0.13,
    "url": "https://images.webcamgalore.com/2930-current-webcam-London.jpg",
    "refreshSec": 15,
    "width": 1920,
    "height": 1080,
    "num": 113,
    "type": "jpeg",
    "lon": -0.13
  },
  {
    "id": "gb-ramsgate",
    "name": "🇬🇧 Ramsgate, United Kingdom",
    "city": "Ramsgate",
    "country": "GB",
    "lat": 51.3333321,
    "lng": 1.4166667,
    "url": "https://images.webcamgalore.com/5101-current-webcam-Ramsgate.jpg",
    "refreshSec": 30,
    "width": 1280,
    "height": 720,
    "num": 114,
    "type": "jpeg",
    "lon": 1.4166667
  },
  {
    "id": "gb-92news",
    "name": "📡 92 News HD",
    "city": "伦敦",
    "country": "GB",
    "lat": 51.51,
    "lng": -0.13,
    "url": "http://92news.vdn.dstreamone.net/92newshd/92hd/playlist.m3u8",
    "width": 1280,
    "height": 720,
    "streamType": "hls",
    "refreshSec": 0,
    "num": 115,
    "live": true,
    "type": "hls",
    "lon": -0.13
  },
  {
    "id": "gl-freya-glacier",
    "name": "🧊 🇬🇱 Freya Glacier · 格陵兰",
    "city": "Freya Glacier",
    "country": "GL",
    "lat": 74.38,
    "lng": -20.84,
    "url": "https://images.webcamgalore.com/28893-current-webcam-Freya-Glacier.jpg",
    "refreshSec": 15,
    "width": 1920,
    "height": 1080,
    "num": 116,
    "type": "jpeg",
    "lon": -20.84
  },
  {
    "id": "gl-ilulissat",
    "name": "🧊 🇬🇱 Ilulissat · 冰峡湾",
    "city": "Ilulissat",
    "country": "GL",
    "lat": 69.22,
    "lng": -51.1,
    "url": "https://images.webcamgalore.com/18633-current-webcam-Ilulissat.jpg",
    "refreshSec": 15,
    "width": 1280,
    "height": 720,
    "num": 117,
    "type": "jpeg",
    "lon": -51.1
  },
  {
    "id": "gl-kangerlussuaq",
    "name": "🧊 🇬🇱 Kangerlussuaq · 北极圈",
    "city": "Kangerlussuaq",
    "country": "GL",
    "lat": 67.01,
    "lng": -50.69,
    "url": "https://images.webcamgalore.com/35846-current-webcam-Kangerlussuaq.jpg",
    "refreshSec": 15,
    "width": 1280,
    "height": 720,
    "num": 118,
    "type": "jpeg",
    "lon": -50.69
  },
  {
    "id": "gl-kulusuk",
    "name": "🧊 🇬🇱 Kulusuk · 东格陵兰",
    "city": "Kulusuk",
    "country": "GL",
    "lat": 65.57,
    "lng": -37.18,
    "url": "https://images.webcamgalore.com/36049-current-webcam-Kulusuk.jpg",
    "refreshSec": 15,
    "width": 1280,
    "height": 720,
    "num": 119,
    "type": "jpeg",
    "lon": -37.18
  },
  {
    "id": "gr-santorini",
    "name": "🏝️ 圣托里尼 · 爱琴海日落",
    "city": "Santorini",
    "country": "GR",
    "lat": 36.39,
    "lng": 25.46,
    "url": "https://images.webcamgalore.com/35540-current-webcam-Santorini.jpg",
    "refreshSec": 15,
    "width": 1280,
    "height": 720,
    "num": 120,
    "type": "jpeg",
    "lon": 25.46
  },
  {
    "id": "gt-guatemala-city",
    "name": "🏙️ 🇬🇹 Guatemala City",
    "city": "Guatemala City",
    "country": "GT",
    "lat": 14.63,
    "lng": -90.51,
    "url": "https://images.webcamgalore.com/35118-current-webcam-Guatemala-City.jpg",
    "refreshSec": 15,
    "width": 1920,
    "height": 1080,
    "num": 121,
    "type": "jpeg",
    "lon": -90.51
  },
  {
    "id": "cn-cheungchau",
    "name": "🏝️ 🇭🇰 长洲岛",
    "city": "Cheung Chau",
    "country": "HK",
    "lat": 20.6,
    "lng": 115.3,
    "url": "https://images.webcamgalore.com/34870-current-webcam-Hong-Kong.jpg",
    "refreshSec": 15,
    "width": 1280,
    "height": 720,
    "num": 122,
    "type": "jpeg",
    "lon": 115.3
  },
  {
    "id": "cn-clearbay",
    "name": "🏖️ 🇭🇰 清水湾 · 东南",
    "city": "Clear Water Bay",
    "country": "HK",
    "lat": 17.9,
    "lng": 115.3,
    "url": "https://images.webcamgalore.com/34885-current-webcam-Hong-Kong.jpg",
    "refreshSec": 15,
    "width": 1280,
    "height": 720,
    "num": 123,
    "type": "jpeg",
    "lon": 115.3
  },
  {
    "id": "cn-hk-airport",
    "name": "✈️ 🇭🇰 香港机场",
    "city": "HK Airport",
    "country": "HK",
    "lat": 19.7,
    "lng": 115.3,
    "url": "https://images.webcamgalore.com/34879-current-webcam-Hong-Kong.jpg",
    "refreshSec": 15,
    "width": 1280,
    "height": 720,
    "num": 124,
    "type": "jpeg",
    "lon": 115.3
  },
  {
    "id": "cn-icc-se",
    "name": "🏙️ 🇭🇰 ICC · 东南俯瞰",
    "city": "ICC",
    "country": "HK",
    "lat": 21.8,
    "lng": 115.3,
    "url": "https://images.webcamgalore.com/34865-current-webcam-Hong-Kong.jpg",
    "refreshSec": 15,
    "width": 1920,
    "height": 1080,
    "num": 125,
    "type": "jpeg",
    "lon": 115.3
  },
  {
    "id": "cn-icc-sw",
    "name": "🏙️ 🇭🇰 ICC · 西南方向",
    "city": "ICC SW",
    "country": "HK",
    "lat": 21.5,
    "lng": 115.3,
    "url": "https://images.webcamgalore.com/34867-current-webcam-Hong-Kong.jpg",
    "refreshSec": 15,
    "width": 1920,
    "height": 1080,
    "num": 126,
    "type": "jpeg",
    "lon": 115.3
  },
  {
    "id": "cn-kadoorie",
    "name": "🌿 🇭🇰 嘉道理农场",
    "city": "Kadoorie Farm",
    "country": "HK",
    "lat": 19.4,
    "lng": 115.3,
    "url": "https://images.webcamgalore.com/34880-current-webcam-Hong-Kong.jpg",
    "refreshSec": 15,
    "width": 1920,
    "height": 1080,
    "num": 127,
    "type": "jpeg",
    "lon": 115.3
  },
  {
    "id": "cn-kowloon-city",
    "name": "🏙️ 🇭🇰 九龙城 · 东眺",
    "city": "Kowloon City",
    "country": "HK",
    "lat": 20.9,
    "lng": 115.3,
    "url": "https://images.webcamgalore.com/34871-current-webcam-Hong-Kong.jpg",
    "refreshSec": 15,
    "width": 1280,
    "height": 720,
    "num": 128,
    "type": "jpeg",
    "lon": 115.3
  },
  {
    "id": "cn-laufaushan",
    "name": "🌅 🇭🇰 流浮山 · 日落",
    "city": "Lau Fau Shan",
    "country": "HK",
    "lat": 18.5,
    "lng": 115.3,
    "url": "https://images.webcamgalore.com/34883-current-webcam-Hong-Kong.jpg",
    "refreshSec": 15,
    "width": 1280,
    "height": 720,
    "num": 129,
    "type": "jpeg",
    "lon": 115.3
  },
  {
    "id": "cn-pengchau",
    "name": "🏝️ 🇭🇰 坪洲岛",
    "city": "Peng Chau",
    "country": "HK",
    "lat": 20.3,
    "lng": 115.3,
    "url": "https://images.webcamgalore.com/34872-current-webcam-Hong-Kong.jpg",
    "refreshSec": 15,
    "width": 1280,
    "height": 720,
    "num": 130,
    "type": "jpeg",
    "lon": 115.3
  },
  {
    "id": "cn-saikung",
    "name": "⛵ 🇭🇰 西贡 · 东南",
    "city": "Sai Kung",
    "country": "HK",
    "lat": 17.6,
    "lng": 115.3,
    "url": "https://images.webcamgalore.com/34886-current-webcam-Hong-Kong.jpg",
    "refreshSec": 15,
    "width": 1920,
    "height": 1080,
    "num": 131,
    "type": "jpeg",
    "lon": 115.3
  },
  {
    "id": "cn-saiwanho",
    "name": "🌊 🇭🇰 西湾河 · 东望",
    "city": "Sai Wan Ho",
    "country": "HK",
    "lat": 18.2,
    "lng": 115.3,
    "url": "https://images.webcamgalore.com/34884-current-webcam-Hong-Kong.jpg",
    "refreshSec": 15,
    "width": 1280,
    "height": 720,
    "num": 132,
    "type": "jpeg",
    "lon": 115.3
  },
  {
    "id": "cn-sheungshui",
    "name": "🏫 🇭🇰 上水 · 西北",
    "city": "Sheung Shui",
    "country": "HK",
    "lat": 19.1,
    "lng": 115.3,
    "url": "https://images.webcamgalore.com/34881-current-webcam-Hong-Kong.jpg",
    "refreshSec": 15,
    "width": 1280,
    "height": 720,
    "num": 133,
    "type": "jpeg",
    "lon": 115.3
  },
  {
    "id": "cn-taipokau",
    "name": "🌿 🇭🇰 大埔滘 · 东北",
    "city": "Tai Po Kau",
    "country": "HK",
    "lat": 20.0,
    "lng": 115.3,
    "url": "https://images.webcamgalore.com/34873-current-webcam-Hong-Kong.jpg",
    "refreshSec": 15,
    "width": 1280,
    "height": 720,
    "num": 134,
    "type": "jpeg",
    "lon": 115.3
  },
  {
    "id": "cn-tsimshatsui",
    "name": "🏙️ 🇭🇰 尖沙咀 · 维港",
    "city": "Tsim Sha Tsui",
    "country": "HK",
    "lat": 21.2,
    "lng": 115.3,
    "url": "https://images.webcamgalore.com/34868-current-webcam-Hong-Kong.jpg",
    "refreshSec": 15,
    "width": 1280,
    "height": 720,
    "num": 135,
    "type": "jpeg",
    "lon": 115.3
  },
  {
    "id": "cn-victoria-harbour",
    "name": "🌊 🇭🇰 维多利亚港",
    "city": "Victoria Harbour",
    "country": "HK",
    "lat": 22.4,
    "lng": 115.3,
    "url": "https://images.webcamgalore.com/34866-current-webcam-Hong-Kong.jpg",
    "refreshSec": 15,
    "width": 1920,
    "height": 1080,
    "num": 136,
    "type": "jpeg",
    "lon": 115.3
  },
  {
    "id": "cn-victoria-peak2",
    "name": "🏙️ 🇭🇰 太平山 · 北望维港",
    "city": "Victoria Peak",
    "country": "HK",
    "lat": 22.1,
    "lng": 115.3,
    "url": "https://images.webcamgalore.com/34864-current-webcam-Hong-Kong.jpg",
    "refreshSec": 15,
    "width": 1920,
    "height": 1080,
    "num": 137,
    "type": "jpeg",
    "lon": 115.3
  },
  {
    "id": "cn-wetland",
    "name": "🦆 🇭🇰 湿地公园",
    "city": "Wetland Park",
    "country": "HK",
    "lat": 18.8,
    "lng": 115.3,
    "url": "https://images.webcamgalore.com/34882-current-webcam-Hong-Kong.jpg",
    "refreshSec": 15,
    "width": 1280,
    "height": 720,
    "num": 138,
    "type": "jpeg",
    "lon": 115.3
  },
  {
    "id": "cn-breadtv",
    "name": "📺 面包台",
    "city": "香港",
    "country": "HK",
    "lat": 22.3,
    "lng": 114.2,
    "url": "https://video.bread-tv.com:8091/hls-live24/online/index.m3u8",
    "refreshSec": 99,
    "width": 1280,
    "height": 720,
    "streamType": "hls",
    "num": 139,
    "type": "hls",
    "lon": 114.2
  },
  {
    "id": "hr-bale",
    "name": "🏰 🇭🇷 Bale",
    "city": "Bale",
    "country": "HR",
    "lat": 45.04,
    "lng": 13.78,
    "url": "https://images.webcamgalore.com/34360-current-webcam-Bale.jpg",
    "refreshSec": 15,
    "width": 1920,
    "height": 1080,
    "num": 140,
    "type": "jpeg",
    "lon": 13.78
  },
  {
    "id": "hr-flengi",
    "name": "🇭🇷 Flengi, Croatia",
    "city": "Flengi",
    "country": "HR",
    "lat": 45.1643982,
    "lng": 13.6648569,
    "url": "https://images.webcamgalore.com/6087-current-webcam-Flengi.jpg",
    "refreshSec": 30,
    "width": 1280,
    "height": 720,
    "num": 141,
    "type": "jpeg",
    "lon": 13.6648569
  },
  {
    "id": "hr-samobor",
    "name": "🇭🇷 Samobor, Croatia",
    "city": "Samobor",
    "country": "HR",
    "lat": 45.8017006,
    "lng": 15.7103996,
    "url": "https://images.webcamgalore.com/17689-current-webcam-Samobor.jpg",
    "refreshSec": 30,
    "width": 1920,
    "height": 1080,
    "num": 142,
    "type": "jpeg",
    "lon": 15.7103996
  },
  {
    "id": "hr-seline",
    "name": "🇭🇷 Seline, Croatia",
    "city": "Seline",
    "country": "HR",
    "lat": 44.2835999,
    "lng": 15.4752998,
    "url": "https://images.webcamgalore.com/36016-current-webcam-Seline.jpg",
    "refreshSec": 30,
    "width": 1920,
    "height": 1080,
    "num": 143,
    "type": "jpeg",
    "lon": 15.4752998
  },
  {
    "id": "hr-umag",
    "name": "🇭🇷 Umag, Croatia",
    "city": "Umag",
    "country": "HR",
    "lat": 45.3820992,
    "lng": 13.5396004,
    "url": "https://images.webcamgalore.com/35572-current-webcam-Umag.jpg",
    "refreshSec": 30,
    "width": 1920,
    "height": 1080,
    "num": 144,
    "type": "jpeg",
    "lon": 13.5396004
  },
  {
    "id": "hu-veszprem",
    "name": "🏰 🇭🇺 Veszprem",
    "city": "Veszprem",
    "country": "HU",
    "lat": 47.09,
    "lng": 17.91,
    "url": "https://images.webcamgalore.com/38345-current-webcam-Veszprem.jpg",
    "refreshSec": 15,
    "width": 1920,
    "height": 1080,
    "num": 145,
    "type": "jpeg",
    "lon": 17.91
  },
  {
    "id": "hu-oxygen",
    "name": "🎶 Oxygen Music · 匈牙利",
    "city": "布达佩斯",
    "country": "HU",
    "lat": 47.5,
    "lng": 19.04,
    "url": "https://oxygenmusic.hu:2443/hls/oxygenmusic.m3u8",
    "width": 640,
    "height": 360,
    "streamType": "hls",
    "refreshSec": 0,
    "num": 146,
    "live": true,
    "type": "hls",
    "lon": 19.04
  },
  {
    "id": "id-gianyar-bali",
    "name": "🇮🇩 Gianyar Bali, Indonesia",
    "city": "Gianyar Bali",
    "country": "ID",
    "lat": -8.5982599,
    "lng": 115.3389969,
    "url": "https://images.webcamgalore.com/25140-current-webcam-Gianyar-Bali.jpg",
    "refreshSec": 30,
    "width": 1280,
    "height": 720,
    "num": 147,
    "type": "jpeg",
    "lon": 115.3389969
  },
  {
    "id": "id-tangkubanperahu",
    "name": "🌋 🇮🇩 Tangkuban Perahu",
    "city": "Tangkuban Perahu",
    "country": "ID",
    "lat": -6.8,
    "lng": 107.6,
    "url": "https://images.webcamgalore.com/35152-current-webcam-Tangkuban-Perahu.jpg",
    "refreshSec": 15,
    "width": 2348,
    "height": 1920,
    "num": 148,
    "type": "jpeg",
    "lon": 107.6
  },
  {
    "id": "ie-dublin",
    "name": "🍀 都柏林 · 利菲河",
    "city": "Dublin",
    "country": "IE",
    "lat": 53.35,
    "lng": -6.26,
    "url": "https://images.webcamgalore.com/35900-current-webcam-Dublin.jpg",
    "refreshSec": 15,
    "width": 1920,
    "height": 1080,
    "num": 149,
    "type": "jpeg",
    "lon": -6.26
  },
  {
    "id": "il-tel-aviv",
    "name": "🇮🇱 Tel Aviv, Israel",
    "city": "Tel Aviv",
    "country": "IL",
    "lat": 32.0853004,
    "lng": 34.7817993,
    "url": "https://images.webcamgalore.com/37077-current-webcam-Tel-Aviv.jpg",
    "refreshSec": 30,
    "width": 1920,
    "height": 1080,
    "num": 150,
    "type": "jpeg",
    "lon": 34.7817993
  },
  {
    "id": "in-bir",
    "name": "🏔️ 🇮🇳 Bir · 喜马拉雅",
    "city": "Bir",
    "country": "IN",
    "lat": 32.05,
    "lng": 76.7,
    "url": "https://images.webcamgalore.com/36433-current-webcam-Bir.jpg",
    "refreshSec": 15,
    "width": 1280,
    "height": 720,
    "num": 151,
    "type": "jpeg",
    "lon": 76.7
  },
  {
    "id": "in-delhi",
    "name": "🇮🇳 Delhi, India",
    "city": "Delhi",
    "country": "IN",
    "lat": 28.6285992,
    "lng": 77.2229996,
    "url": "https://images.webcamgalore.com/38131-current-webcam-Delhi.jpg",
    "refreshSec": 30,
    "width": 1920,
    "height": 1080,
    "num": 152,
    "type": "jpeg",
    "lon": 77.2229996
  },
  {
    "id": "in-tiruvannamalai",
    "name": "🛕 🇮🇳 Tiruvannamalai · 圣山",
    "city": "Tiruvannamalai",
    "country": "IN",
    "lat": 12.23,
    "lng": 79.07,
    "url": "https://images.webcamgalore.com/2850-current-webcam-Tiruvannamalai.jpg",
    "refreshSec": 15,
    "width": 1920,
    "height": 1080,
    "num": 153,
    "type": "jpeg",
    "lon": 79.07
  },
  {
    "id": "in-anandabarta",
    "name": "📡 Ananda Barta",
    "city": "加尔各答",
    "country": "IN",
    "lat": 22.57,
    "lng": 88.36,
    "url": "https://account19.livebox.co.in/Anandabarta2hls/live.m3u8",
    "width": 640,
    "height": 360,
    "streamType": "hls",
    "refreshSec": 0,
    "num": 154,
    "live": true,
    "type": "hls",
    "lon": 88.36
  },
  {
    "id": "in-aajtak",
    "name": "📡 Aaj Tak HD · 印度新闻",
    "city": "新德里",
    "country": "IN",
    "lat": 28.61,
    "lng": 77.23,
    "url": "https://feeds.intoday.in/aajtak/api/aajtakhd/master.m3u8",
    "refreshSec": 0,
    "num": 155,
    "width": 1920,
    "height": 1080,
    "streamType": "hls",
    "live": true,
    "type": "hls",
    "lon": 77.23
  },
  {
    "id": "in-10tv",
    "name": "📺 10 TV India",
    "city": "海得拉巴",
    "country": "IN",
    "lat": 17.39,
    "lng": 78.49,
    "url": "https://mumbai-edge.smartplaytv.in/10TV/index.m3u8",
    "width": 1280,
    "height": 720,
    "streamType": "hls",
    "refreshSec": 0,
    "num": 156,
    "live": true,
    "type": "hls",
    "lon": 78.49
  },
  {
    "id": "in-abn-andhra",
    "name": "📡 ABN Andhra Jyoti",
    "city": "海得拉巴",
    "country": "IN",
    "lat": 17.39,
    "lng": 78.49,
    "url": "https://mumbai-edge.smartplaytv.in/ABNAJ/index.m3u8",
    "width": 1280,
    "height": 720,
    "streamType": "hls",
    "refreshSec": 0,
    "num": 157,
    "live": true,
    "type": "hls",
    "lon": 78.49
  },
  {
    "id": "iq-altaghier",
    "name": "📡 Altaghier TV",
    "city": "巴格达",
    "country": "IQ",
    "lat": 33.31,
    "lng": 44.36,
    "url": "https://jmc-live.ercdn.net/altaghier/altaghier.m3u8",
    "width": 640,
    "height": 360,
    "streamType": "hls",
    "refreshSec": 0,
    "num": 158,
    "live": true,
    "type": "hls",
    "lon": 44.36
  },
  {
    "id": "iq-aliraqia",
    "name": "📡 Al Iraqia News",
    "city": "巴格达",
    "country": "IQ",
    "lat": 33.31,
    "lng": 44.36,
    "url": "https://imn-live.esite-lab.com/hls/iraqia-news.m3u8",
    "width": 640,
    "height": 360,
    "streamType": "hls",
    "refreshSec": 0,
    "num": 159,
    "live": true,
    "type": "hls",
    "lon": 44.36
  },
  {
    "id": "ir-alalam",
    "name": "📡 Alalam News",
    "city": "德黑兰",
    "country": "IR",
    "lat": 35.69,
    "lng": 51.42,
    "url": "https://live2.alalam.ir/live/Alalam/index.m3u8",
    "width": 640,
    "height": 360,
    "streamType": "hls",
    "refreshSec": 0,
    "num": 160,
    "live": true,
    "type": "hls",
    "lon": 51.42
  },
  {
    "id": "is-akranes2",
    "name": "❄️ 🇮🇸 Akranes · 冰岛西岸",
    "city": "Akranes",
    "country": "IS",
    "lat": 64.32,
    "lng": -22.07,
    "url": "https://images.webcamgalore.com/32771-current-webcam-Akranes.jpg",
    "refreshSec": 15,
    "width": 3072,
    "height": 1728,
    "num": 161,
    "type": "jpeg",
    "lon": -22.07
  },
  {
    "id": "is-akureyri2",
    "name": "❄️ 🇮🇸 Akureyri · 北部首都",
    "city": "Akureyri",
    "country": "IS",
    "lat": 65.68,
    "lng": -18.09,
    "url": "https://images.webcamgalore.com/23253-current-webcam-Akureyri.jpg",
    "refreshSec": 15,
    "width": 1920,
    "height": 1080,
    "num": 162,
    "type": "jpeg",
    "lon": -18.09
  },
  {
    "id": "is-keflavik",
    "name": "🇮🇸 Keflavik, Iceland",
    "city": "Keflavik",
    "country": "IS",
    "lat": 64.0429993,
    "lng": -22.5939999,
    "url": "https://images.webcamgalore.com/22896-current-webcam-Keflavik.jpg",
    "refreshSec": 30,
    "width": 1280,
    "height": 720,
    "num": 163,
    "type": "jpeg",
    "lon": -22.5939999
  },
  {
    "id": "is-reykjavik",
    "name": "🇮🇸 Reykjavik, Iceland",
    "city": "Reykjavik",
    "country": "IS",
    "lat": 64.1445999,
    "lng": -21.9076996,
    "url": "https://images.webcamgalore.com/23649-current-webcam-Reykjavik.jpg",
    "refreshSec": 30,
    "width": 1280,
    "height": 720,
    "num": 164,
    "type": "jpeg",
    "lon": -21.9076996
  },
  {
    "id": "is-thingvellir",
    "name": "🇮🇸 Thingvellir, Iceland",
    "city": "Thingvellir",
    "country": "IS",
    "lat": 64.2602997,
    "lng": -21.1238003,
    "url": "https://images.webcamgalore.com/14426-current-webcam-Thingvellir.jpg",
    "refreshSec": 30,
    "width": 3840,
    "height": 2160,
    "num": 165,
    "type": "jpeg",
    "lon": -21.1238003
  },
  {
    "id": "it-abbadia-san-salvatore",
    "name": "⛪ 🇮🇹 Abbadia San Salvatore",
    "city": "Abbadia San Salvatore",
    "country": "IT",
    "lat": 42.88,
    "lng": 11.67,
    "url": "https://images.webcamgalore.com/34324-current-webcam-Abbadia-San-Salvatore.jpg",
    "refreshSec": 15,
    "width": 1920,
    "height": 1080,
    "num": 166,
    "type": "jpeg",
    "lon": 11.67
  },
  {
    "id": "it-abetone",
    "name": "⛷️ 🇮🇹 Abetone",
    "city": "Abetone",
    "country": "IT",
    "lat": 44.15,
    "lng": 10.67,
    "url": "https://images.webcamgalore.com/38487-current-webcam-Abetone.jpg",
    "refreshSec": 15,
    "width": 1920,
    "height": 1080,
    "num": 167,
    "type": "jpeg",
    "lon": 10.67
  },
  {
    "id": "je-saint-aubin",
    "name": "🇯🇪 Saint Aubin, Jersey",
    "city": "Saint Aubin",
    "country": "JE",
    "lat": 49.1893005,
    "lng": -2.17012,
    "url": "https://images.webcamgalore.com/34429-current-webcam-Saint-Aubin.jpg",
    "refreshSec": 30,
    "width": 1280,
    "height": 720,
    "num": 168,
    "type": "jpeg",
    "lon": -2.17012
  },
  {
    "id": "jo-alsharqiya",
    "name": "📡 Al-Sharqiya News",
    "city": "安曼",
    "country": "JO",
    "lat": 31.95,
    "lng": 35.93,
    "url": "https://5d94523502c2d.streamlock.net/alsharqiyalive/mystream/playlist.m3u8",
    "width": 1920,
    "height": 1080,
    "streamType": "hls",
    "refreshSec": 0,
    "num": 169,
    "live": true,
    "type": "hls",
    "lon": 35.93
  },
  {
    "id": "jp-kagoshima",
    "name": "🌋 鹿児島 · 桜島",
    "city": "Kagoshima",
    "country": "JP",
    "lat": 31.56,
    "lng": 130.56,
    "url": "https://images.webcamgalore.com/1069-current-webcam-Kagoshima.jpg",
    "refreshSec": 15,
    "num": 170,
    "width": 1920,
    "height": 1080,
    "type": "jpeg",
    "lon": 130.56
  },
  {
    "id": "jp-sakurajima",
    "name": "🇯🇵 Sakurajima, Japan",
    "city": "Sakurajima",
    "country": "JP",
    "lat": 31.5844841,
    "lng": 130.6544037,
    "url": "https://images.webcamgalore.com/15601-current-webcam-Sakurajima.jpg",
    "refreshSec": 30,
    "width": 1280,
    "height": 720,
    "num": 171,
    "type": "jpeg",
    "lon": 130.6544037
  },
  {
    "id": "jp-gaki",
    "name": "😂 Gaki no Tsukai · 日本搞笑",
    "city": "Tokyo",
    "country": "JP",
    "lat": 35.7,
    "lng": 138.3,
    "url": "https://hamada.gaki-no-tsukai.stream/hls/test.m3u8",
    "streamType": "hls",
    "refreshSec": 15,
    "width": 640,
    "height": 360,
    "num": 172,
    "type": "hls",
    "lon": 138.3
  },
  {
    "id": "jp-tokyo",
    "name": "🇯🇵 Tokyo, Japan",
    "city": "Tokyo",
    "country": "JP",
    "lat": 35.6703987,
    "lng": 139.7810059,
    "url": "https://images.webcamgalore.com/23696-current-webcam-Tokyo.jpg",
    "refreshSec": 30,
    "width": 1920,
    "height": 1080,
    "num": 173,
    "type": "jpeg",
    "lon": 139.7810059
  },
  {
    "id": "jp-tvasahi",
    "name": "📺 テレビ朝日",
    "city": "东京",
    "country": "JP",
    "lat": 35.66,
    "lng": 139.75,
    "url": "https://tvasahi.mov3.co/hls/tvasahi.m3u8",
    "width": 640,
    "height": 360,
    "streamType": "hls",
    "refreshSec": 0,
    "num": 174,
    "live": true,
    "type": "hls",
    "lon": 139.75
  },
  {
    "id": "jp-fujitv",
    "name": "📺 フジテレビ",
    "city": "东京",
    "country": "JP",
    "lat": 35.63,
    "lng": 139.77,
    "url": "https://fujitv4.mov3.co/hls/fujitv.m3u8",
    "width": 640,
    "height": 360,
    "streamType": "hls",
    "refreshSec": 0,
    "num": 175,
    "live": true,
    "type": "hls",
    "lon": 139.77
  },
  {
    "id": "jp-tbs",
    "name": "📺 TBSテレビ",
    "city": "东京",
    "country": "JP",
    "lat": 35.67,
    "lng": 139.74,
    "url": "https://tbs5.mov3.co/hls/tbs.m3u8",
    "width": 640,
    "height": 360,
    "streamType": "hls",
    "refreshSec": 0,
    "num": 176,
    "live": true,
    "type": "hls",
    "lon": 139.74
  },
  {
    "id": "jp-ntv",
    "name": "📺 日本テレビ NTV",
    "city": "东京",
    "country": "JP",
    "lat": 35.68,
    "lng": 139.76,
    "url": "https://ntv5.mov3.co/hls/ntv.m3u8",
    "width": 640,
    "height": 360,
    "streamType": "hls",
    "refreshSec": 0,
    "num": 177,
    "live": true,
    "type": "hls",
    "lon": 139.76
  },
  {
    "id": "jp-nhkworld",
    "name": "📡 NHK World Japan",
    "city": "東京",
    "country": "JP",
    "lat": 36.2,
    "lng": 140.3,
    "url": "https://masterpl.hls.nhkworld.jp/hls/w/live/smarttv.m3u8",
    "streamType": "hls",
    "refreshSec": 15,
    "width": 1920,
    "height": 1080,
    "num": 178,
    "type": "hls",
    "lon": 140.3
  },
  {
    "id": "ke-africa24en",
    "name": "📡 Africa 24 English",
    "city": "内罗毕",
    "country": "KE",
    "lat": -1.29,
    "lng": 36.82,
    "url": "https://edge20.vedge.infomaniak.com/livecast/ik:africa24english/manifest.m3u8",
    "width": 1920,
    "height": 1080,
    "streamType": "hls",
    "refreshSec": 0,
    "num": 179,
    "live": true,
    "type": "hls",
    "lon": 36.82
  },
  {
    "id": "kr-seoul",
    "name": "🇰🇷 Seoul, South Korea",
    "city": "Seoul",
    "country": "KR",
    "lat": 37.5665016,
    "lng": 126.9779968,
    "url": "https://images.webcamgalore.com/32898-current-webcam-Seoul.jpg",
    "refreshSec": 30,
    "width": 1920,
    "height": 1080,
    "num": 180,
    "type": "jpeg",
    "lon": 126.9779968
  },
  {
    "id": "kr-cjb",
    "name": "📺 CJB TV",
    "city": "清州",
    "country": "KR",
    "lat": 36.64,
    "lng": 127.49,
    "url": "http://1.222.207.80:1935/live/cjbtv/playlist.m3u8",
    "width": 1280,
    "height": 720,
    "streamType": "hls",
    "refreshSec": 0,
    "num": 181,
    "live": true,
    "type": "hls",
    "lon": 127.49
  },
  {
    "id": "kr-cjonstyle",
    "name": "🛍️ CJ OnStyle · 韩风时尚",
    "city": "首尔",
    "country": "KR",
    "lat": 37.57,
    "lng": 126.98,
    "url": "https://live-ch1.cjonstyle.net/cjmalllive/stream2/playlist.m3u8",
    "width": 960,
    "height": 540,
    "streamType": "hls",
    "refreshSec": 0,
    "num": 182,
    "live": true,
    "type": "hls",
    "lon": 126.98
  },
  {
    "id": "kr-arirangun",
    "name": "🎬 Arirang UN · K-Culture",
    "city": "首尔",
    "country": "KR",
    "lat": 37.57,
    "lng": 126.98,
    "url": "https://amdlive-ch02-ctnd-com.akamaized.net/arirang_2ch/smil:arirang_2ch.smil/playlist.m3u8",
    "width": 1920,
    "height": 1080,
    "streamType": "hls",
    "refreshSec": 0,
    "num": 183,
    "live": true,
    "type": "hls",
    "lon": 126.98
  },
  {
    "id": "kr-arirang",
    "name": "📡 Arirang TV",
    "city": "首尔",
    "country": "KR",
    "lat": 37.57,
    "lng": 126.98,
    "url": "http://amdlive-ch01.ctnd.com.edgesuite.net/arirang_1ch/smil:arirang_1ch.smil/playlist.m3u8",
    "width": 1920,
    "height": 1080,
    "streamType": "hls",
    "refreshSec": 0,
    "num": 184,
    "live": true,
    "type": "hls",
    "lon": 126.98
  },
  {
    "id": "lt-kaniukai",
    "name": "🌲 🇱🇹 Kaniukai",
    "city": "Kaniukai",
    "country": "LT",
    "lat": 54.2,
    "lng": 25.1,
    "url": "https://images.webcamgalore.com/30880-current-webcam-Kaniukai.jpg",
    "refreshSec": 15,
    "width": 1920,
    "height": 1080,
    "num": 185,
    "type": "jpeg",
    "lon": 25.1
  },
  {
    "id": "lt-neringa",
    "name": "🇱🇹 Neringa, Lithuania",
    "city": "Neringa",
    "country": "LT",
    "lat": 55.3007011,
    "lng": 20.9731998,
    "url": "https://images.webcamgalore.com/32630-current-webcam-Neringa.jpg",
    "refreshSec": 30,
    "width": 1280,
    "height": 720,
    "num": 186,
    "type": "jpeg",
    "lon": 20.9731998
  },
  {
    "id": "lt-vilnius",
    "name": "🏙️ 🇱🇹 Vilnius",
    "city": "Vilnius",
    "country": "LT",
    "lat": 54.69,
    "lng": 25.28,
    "url": "https://images.webcamgalore.com/30878-current-webcam-Vilnius.jpg",
    "refreshSec": 15,
    "width": 1920,
    "height": 1080,
    "num": 187,
    "type": "jpeg",
    "lon": 25.28
  },
  {
    "id": "lv-daugavpils",
    "name": "🏙️ 🇱🇻 Daugavpils",
    "city": "Daugavpils",
    "country": "LV",
    "lat": 55.87,
    "lng": 26.53,
    "url": "https://images.webcamgalore.com/30866-current-webcam-Daugavpils.jpg",
    "refreshSec": 15,
    "width": 1920,
    "height": 1080,
    "num": 188,
    "type": "jpeg",
    "lon": 26.53
  },
  {
    "id": "lv-jurmala-3",
    "name": "🇱🇻 Jurmala, Latvia",
    "city": "Jurmala",
    "country": "LV",
    "lat": 56.9729996,
    "lng": 23.8010998,
    "url": "https://images.webcamgalore.com/32608-current-webcam-Jurmala.jpg",
    "refreshSec": 30,
    "width": 1280,
    "height": 720,
    "num": 189,
    "type": "jpeg",
    "lon": 23.8010998
  },
  {
    "id": "lv-jurmala",
    "name": "🏖️ 🇱🇻 Jurmala",
    "city": "Jurmala",
    "country": "LV",
    "lat": 56.97,
    "lng": 23.83,
    "url": "https://images.webcamgalore.com/30858-current-webcam-Jurmala.jpg",
    "refreshSec": 15,
    "width": 1920,
    "height": 1080,
    "num": 190,
    "type": "jpeg",
    "lon": 23.83
  },
  {
    "id": "lv-jurmala-2",
    "name": "🇱🇻 Jurmala, Latvia",
    "city": "Jurmala",
    "country": "LV",
    "lat": 56.9749985,
    "lng": 23.7854996,
    "url": "https://images.webcamgalore.com/32612-current-webcam-Jurmala.jpg",
    "refreshSec": 30,
    "width": 1280,
    "height": 720,
    "num": 191,
    "type": "jpeg",
    "lon": 23.7854996
  },
  {
    "id": "ma-dakhla",
    "name": "🇲🇦 Dakhla, Morocco",
    "city": "Dakhla",
    "country": "MA",
    "lat": 23.9015007,
    "lng": -15.7854996,
    "url": "https://images.webcamgalore.com/36449-current-webcam-Dakhla.jpg",
    "refreshSec": 30,
    "width": 1280,
    "height": 720,
    "num": 192,
    "type": "jpeg",
    "lon": -15.7854996
  },
  {
    "id": "ma-dakhla-2",
    "name": "🇲🇦 Dakhla, Morocco",
    "city": "Dakhla",
    "country": "MA",
    "lat": 23.7264996,
    "lng": -15.9354,
    "url": "https://images.webcamgalore.com/31319-current-webcam-Dakhla.jpg",
    "refreshSec": 30,
    "width": 1920,
    "height": 1080,
    "num": 193,
    "type": "jpeg",
    "lon": -15.9354
  },
  {
    "id": "ma-taghazout",
    "name": "🇲🇦 Taghazout, Morocco",
    "city": "Taghazout",
    "country": "MA",
    "lat": 30.5837994,
    "lng": -9.7575598,
    "url": "https://images.webcamgalore.com/38449-current-webcam-Taghazout.jpg",
    "refreshSec": 30,
    "width": 1280,
    "height": 720,
    "num": 194,
    "type": "jpeg",
    "lon": -9.7575598
  },
  {
    "id": "mv-filitheyo-north-nilandhe-atoll",
    "name": "🇲🇻 Filitheyo North Nilandhe Atoll, Maldives",
    "city": "Filitheyo North Nilandhe Atoll",
    "country": "MV",
    "lat": 3.2515371,
    "lng": 72.9902496,
    "url": "https://images.webcamgalore.com/1615-current-webcam-Filitheyo-North-Nilandhe-Atoll.jpg",
    "refreshSec": 30,
    "width": 1280,
    "height": 720,
    "num": 195,
    "type": "jpeg",
    "lon": 72.9902496
  },
  {
    "id": "mv-huvahendhooariatoll",
    "name": "🏝️ 🇲🇻 Huvahendhoo Ari Atoll",
    "city": "Huvahendhoo Ari Atoll",
    "country": "MV",
    "lat": 3.8,
    "lng": 72.8,
    "url": "https://images.webcamgalore.com/26335-current-webcam-Huvahendhoo-Ari-Atoll.jpg",
    "refreshSec": 15,
    "width": 1920,
    "height": 1080,
    "num": 196,
    "type": "jpeg",
    "lon": 72.8
  },
  {
    "id": "mv-komandoo-lhaviyani-atoll",
    "name": "🇲🇻 Komandoo Lhaviyani Atoll, Maldives",
    "city": "Komandoo Lhaviyani Atoll",
    "country": "MV",
    "lat": 5.4942598,
    "lng": 73.4238968,
    "url": "https://images.webcamgalore.com/18834-current-webcam-Komandoo-Lhaviyani-Atoll.jpg",
    "refreshSec": 30,
    "width": 1280,
    "height": 720,
    "num": 197,
    "type": "jpeg",
    "lon": 73.4238968
  },
  {
    "id": "mv-kuramathi-rasdhoo-atoll",
    "name": "🇲🇻 Kuramathi Rasdhoo Atoll, Maldives",
    "city": "Kuramathi Rasdhoo Atoll",
    "country": "MV",
    "lat": 4.2614198,
    "lng": 72.969902,
    "url": "https://images.webcamgalore.com/28908-current-webcam-Kuramathi-Rasdhoo-Atoll.jpg",
    "refreshSec": 30,
    "width": 2592,
    "height": 1944,
    "num": 198,
    "type": "jpeg",
    "lon": 72.969902
  },
  {
    "id": "mx-acapulco",
    "name": "🇲🇽 Acapulco, Mexico",
    "city": "Acapulco",
    "country": "MX",
    "lat": 16.8641014,
    "lng": -99.8896713,
    "url": "https://images.webcamgalore.com/522-current-webcam-Acapulco.jpg",
    "refreshSec": 30,
    "width": 1920,
    "height": 1080,
    "num": 199,
    "type": "jpeg",
    "lon": -99.8896713
  },
  {
    "id": "mx-cancun",
    "name": "🏖️ 坎昆 · 加勒比海滩",
    "city": "Cancun",
    "country": "MX",
    "lat": 21.16,
    "lng": -86.85,
    "url": "https://images.webcamgalore.com/35000-current-webcam-Cancun.jpg",
    "refreshSec": 15,
    "width": 1280,
    "height": 720,
    "num": 200,
    "type": "jpeg",
    "lon": -86.85
  },
  {
    "id": "mx-cancun-2",
    "name": "🇲🇽 Cancun, Mexico",
    "city": "Cancun",
    "country": "MX",
    "lat": 21.1376953,
    "lng": -86.7506943,
    "url": "https://images.webcamgalore.com/26282-current-webcam-Cancun.jpg",
    "refreshSec": 30,
    "width": 1920,
    "height": 1080,
    "num": 201,
    "type": "jpeg",
    "lon": -86.7506943
  },
  {
    "id": "mx-acustik",
    "name": "🎵 Acustik TV 墨西哥",
    "city": "墨西哥城",
    "country": "MX",
    "lat": 19.43,
    "lng": -99.13,
    "url": "https://s5.mexside.net:1936/clientetv/clientetv/playlist.m3u8",
    "width": 1280,
    "height": 720,
    "streamType": "hls",
    "refreshSec": 0,
    "num": 202,
    "live": true,
    "type": "hls",
    "lon": -99.13
  },
  {
    "id": "mx-amx",
    "name": "📡 AMX Noticias",
    "city": "托卢卡",
    "country": "MX",
    "lat": 19.29,
    "lng": -99.66,
    "url": "https://5e50264bd6766.streamlock.net/mexiquense2/videomexiquense2/playlist.m3u8",
    "width": 1280,
    "height": 720,
    "streamType": "hls",
    "refreshSec": 0,
    "num": 203,
    "live": true,
    "type": "hls",
    "lon": -99.66
  },
  {
    "id": "nl-rotterdam",
    "name": "🇳🇱 Rotterdam, Netherlands",
    "city": "Rotterdam",
    "country": "NL",
    "lat": 51.9780006,
    "lng": 4.5727201,
    "url": "https://images.webcamgalore.com/36641-current-webcam-Rotterdam.jpg",
    "refreshSec": 30,
    "width": 2048,
    "height": 1536,
    "num": 204,
    "type": "jpeg",
    "lon": 4.5727201
  },
  {
    "id": "nl-tuitjenhorn",
    "name": "🇳🇱 Tuitjenhorn, Netherlands",
    "city": "Tuitjenhorn",
    "country": "NL",
    "lat": 52.7371216,
    "lng": 4.7512441,
    "url": "https://images.webcamgalore.com/2600-current-webcam-Tuitjenhorn.jpg",
    "refreshSec": 30,
    "width": 1280,
    "height": 720,
    "num": 205,
    "type": "jpeg",
    "lon": 4.7512441
  },
  {
    "id": "nl-beatfm",
    "name": "🎵 BeatFM · 荷兰音乐",
    "city": "阿姆斯特丹",
    "country": "NL",
    "lat": 52.37,
    "lng": 4.9,
    "url": "https://tv.beatfm.nl/live.m3u8",
    "width": 640,
    "height": 360,
    "streamType": "hls",
    "refreshSec": 0,
    "num": 206,
    "live": true,
    "type": "hls",
    "lon": 4.9
  },
  {
    "id": "no-ms-kong-harald",
    "name": "🇳🇴 MS Kong Harald, Hurtigruten",
    "city": "MS Kong Harald",
    "country": "NO",
    "lat": 70.980751,
    "lng": 25.9697399,
    "url": "https://images.webcamgalore.com/19064-current-webcam-MS-Kong-Harald.jpg",
    "refreshSec": 30,
    "width": 1280,
    "height": 720,
    "num": 207,
    "type": "jpeg",
    "lon": 25.9697399
  },
  {
    "id": "no-arctic",
    "name": "❄️ 挪威 · 北极圈",
    "city": "Setermoen",
    "country": "NO",
    "lat": 68.86,
    "lng": 18.35,
    "url": "https://www.yr.no/webcams/1/2000/setermoen/3.jpg",
    "refreshSec": 20,
    "num": 208,
    "width": 1280,
    "height": 720,
    "type": "jpeg",
    "lon": 18.35
  },
  {
    "id": "nz-auckland",
    "name": "🏙️ 🇳🇿 Auckland · 帆船之都",
    "city": "Auckland",
    "country": "NZ",
    "lat": -36.85,
    "lng": 174.76,
    "url": "https://images.webcamgalore.com/38598-current-webcam-Auckland.jpg",
    "refreshSec": 15,
    "width": 1280,
    "height": 720,
    "num": 209,
    "type": "jpeg",
    "lon": 174.76
  },
  {
    "id": "nz-drury",
    "name": "🇳🇿 Drury, New Zealand",
    "city": "Drury",
    "country": "NZ",
    "lat": -37.0948944,
    "lng": 174.9433746,
    "url": "https://images.webcamgalore.com/10341-current-webcam-Drury.jpg",
    "refreshSec": 30,
    "width": 1920,
    "height": 1080,
    "num": 210,
    "type": "jpeg",
    "lon": 174.9433746
  },
  {
    "id": "nz-dunedin",
    "name": "🏙️ 🇳🇿 Dunedin · 南岛",
    "city": "Dunedin",
    "country": "NZ",
    "lat": -45.87,
    "lng": 170.5,
    "url": "https://images.webcamgalore.com/21877-current-webcam-Dunedin.jpg",
    "refreshSec": 15,
    "width": 1280,
    "height": 720,
    "num": 211,
    "type": "jpeg",
    "lon": 170.5
  },
  {
    "id": "nz-lake-pukaki",
    "name": "🏔️ 🇳🇿 Lake Pukaki · 库克山",
    "city": "Lake Pukaki",
    "country": "NZ",
    "lat": -44.0,
    "lng": 170.1,
    "url": "https://images.webcamgalore.com/36365-current-webcam-Lake-Pukaki.jpg",
    "refreshSec": 15,
    "width": 1920,
    "height": 1080,
    "num": 212,
    "type": "jpeg",
    "lon": 170.1
  },
  {
    "id": "nz-wellington",
    "name": "🇳🇿 Wellington, New Zealand",
    "city": "Wellington",
    "country": "NZ",
    "lat": -41.3269997,
    "lng": 174.8079987,
    "url": "https://images.webcamgalore.com/37414-current-webcam-Wellington.jpg",
    "refreshSec": 30,
    "width": 1280,
    "height": 720,
    "num": 213,
    "type": "jpeg",
    "lon": 174.8079987
  },
  {
    "id": "nz-bravo",
    "name": "📡 Kordia NZ · 新西兰",
    "city": "奥克兰",
    "country": "NZ",
    "lat": -36.85,
    "lng": 174.76,
    "url": "https://ptvlive.kordia.net.nz/out/v1/3fc2254c865a457c8d7fbbce227a2aae/index.m3u8",
    "width": 640,
    "height": 360,
    "streamType": "hls",
    "refreshSec": 0,
    "num": 214,
    "live": true,
    "type": "hls",
    "lon": 174.76
  },
  {
    "id": "pa-panama-canal",
    "name": "🚢 🇵🇦 Panama Canal",
    "city": "Panama Canal",
    "country": "PA",
    "lat": 9.0,
    "lng": -79.6,
    "url": "https://images.webcamgalore.com/34989-current-webcam-Panama-Canal.jpg",
    "refreshSec": 15,
    "width": 1280,
    "height": 720,
    "num": 215,
    "type": "jpeg",
    "lon": -79.6
  },
  {
    "id": "pl-bialka-tatrzanska",
    "name": "🏔️ 🇵🇱 Bialka Tatrzanska",
    "city": "Bialka Tatrzanska",
    "country": "PL",
    "lat": 49.39,
    "lng": 20.1,
    "url": "https://images.webcamgalore.com/30923-current-webcam-Bialka-Tatrzanska.jpg",
    "refreshSec": 15,
    "width": 1920,
    "height": 1080,
    "num": 216,
    "type": "jpeg",
    "lon": 20.1
  },
  {
    "id": "pl-bialka-tatrzanska-2",
    "name": "🇵🇱 Bialka Tatrzanska, Poland",
    "city": "Bialka Tatrzanska",
    "country": "PL",
    "lat": 49.3843994,
    "lng": 20.1074009,
    "url": "https://images.webcamgalore.com/26886-current-webcam-Bialka-Tatrzanska.jpg",
    "refreshSec": 30,
    "width": 1280,
    "height": 720,
    "num": 217,
    "type": "jpeg",
    "lon": 20.1074009
  },
  {
    "id": "pl-bukowina-tatrzanska",
    "name": "🇵🇱 Bukowina Tatrzanska, Poland",
    "city": "Bukowina Tatrzanska",
    "country": "PL",
    "lat": 49.3255005,
    "lng": 20.0942993,
    "url": "https://images.webcamgalore.com/26947-current-webcam-Bukowina-Tatrzanska.jpg",
    "refreshSec": 30,
    "width": 1920,
    "height": 1080,
    "num": 218,
    "type": "jpeg",
    "lon": 20.0942993
  },
  {
    "id": "pl-bydgoszcz",
    "name": "🏙️ 🇵🇱 Bydgoszcz",
    "city": "Bydgoszcz",
    "country": "PL",
    "lat": 53.12,
    "lng": 18.01,
    "url": "https://images.webcamgalore.com/2440-current-webcam-Bydgoszcz.jpg",
    "refreshSec": 15,
    "width": 1280,
    "height": 720,
    "num": 219,
    "type": "jpeg",
    "lon": 18.01
  },
  {
    "id": "pl-leba",
    "name": "🇵🇱 Leba, Poland",
    "city": "Leba",
    "country": "PL",
    "lat": 54.7680016,
    "lng": 17.5636997,
    "url": "https://images.webcamgalore.com/26931-current-webcam-Leba.jpg",
    "refreshSec": 30,
    "width": 1920,
    "height": 1080,
    "num": 220,
    "type": "jpeg",
    "lon": 17.5636997
  },
  {
    "id": "pl-sopot",
    "name": "🇵🇱 Sopot, Poland",
    "city": "Sopot",
    "country": "PL",
    "lat": 54.4496002,
    "lng": 18.5681,
    "url": "https://images.webcamgalore.com/26956-current-webcam-Sopot.jpg",
    "refreshSec": 30,
    "width": 1280,
    "height": 720,
    "num": 221,
    "type": "jpeg",
    "lon": 18.5681
  },
  {
    "id": "pl-ustka",
    "name": "🇵🇱 Ustka, Poland",
    "city": "Ustka",
    "country": "PL",
    "lat": 54.588501,
    "lng": 16.8658009,
    "url": "https://images.webcamgalore.com/26948-current-webcam-Ustka.jpg",
    "refreshSec": 30,
    "width": 1280,
    "height": 720,
    "num": 222,
    "type": "jpeg",
    "lon": 16.8658009
  },
  {
    "id": "pl-zawoja",
    "name": "🇵🇱 Zawoja, Poland",
    "city": "Zawoja",
    "country": "PL",
    "lat": 49.6516991,
    "lng": 19.5496998,
    "url": "https://images.webcamgalore.com/26897-current-webcam-Zawoja.jpg",
    "refreshSec": 30,
    "width": 1920,
    "height": 1080,
    "num": 223,
    "type": "jpeg",
    "lon": 19.5496998
  },
  {
    "id": "ps-gaza-city",
    "name": "🇵🇸 Gaza City, Gaza Strip",
    "city": "Gaza City",
    "country": "PS",
    "lat": 31.5016994,
    "lng": 34.4668007,
    "url": "https://images.webcamgalore.com/36048-current-webcam-Gaza-City.jpg",
    "refreshSec": 30,
    "width": 1920,
    "height": 1080,
    "num": 224,
    "type": "jpeg",
    "lon": 34.4668007
  },
  {
    "id": "pt-aljezur",
    "name": "🏄 🇵🇹 Aljezur",
    "city": "Aljezur",
    "country": "PT",
    "lat": 37.32,
    "lng": -8.8,
    "url": "https://images.webcamgalore.com/35872-current-webcam-Aljezur.jpg",
    "refreshSec": 15,
    "width": 1920,
    "height": 1080,
    "num": 225,
    "type": "jpeg",
    "lon": -8.8
  },
  {
    "id": "pt-kmusic",
    "name": "🎵 KMusic · 葡萄牙",
    "city": "里斯本",
    "country": "PT",
    "lat": 38.72,
    "lng": -9.14,
    "url": "http://195.23.211.179:1935/kmusic/smil:kmusic.smil/playlist.m3u8",
    "width": 1280,
    "height": 720,
    "streamType": "hls",
    "refreshSec": 0,
    "num": 226,
    "live": true,
    "type": "hls",
    "lon": -9.14
  },
  {
    "id": "qa-alaraby",
    "name": "📡 Al Araby TV · 阿拉伯",
    "city": "多哈",
    "country": "QA",
    "lat": 25.29,
    "lng": 51.53,
    "url": "https://live.kwikmotion.com/alaraby1live/alaraby_abr/playlist.m3u8",
    "refreshSec": 0,
    "num": 227,
    "width": 1920,
    "height": 1080,
    "streamType": "hls",
    "live": true,
    "type": "hls",
    "lon": 51.53
  },
  {
    "id": "qa-ajm",
    "name": "📡 半岛电视台 AJM",
    "city": "多哈",
    "country": "QA",
    "lat": 25.29,
    "lng": 51.53,
    "url": "https://live-hls-web-ajm.getaj.net/AJM/01.m3u8",
    "width": 640,
    "height": 360,
    "streamType": "hls",
    "refreshSec": 0,
    "num": 228,
    "live": true,
    "type": "hls",
    "lon": 51.53
  },
  {
    "id": "qa-aljazeera",
    "name": "📡 Al Jazeera 阿拉伯语",
    "city": "多哈",
    "country": "QA",
    "lat": 25.29,
    "lng": 51.53,
    "url": "https://live-hls-apps-aja-fa.getaj.net/AJA/01.m3u8",
    "width": 640,
    "height": 360,
    "streamType": "hls",
    "refreshSec": 0,
    "num": 229,
    "live": true,
    "type": "hls",
    "lon": 51.53
  },
  {
    "id": "re-saint-leu",
    "name": "🏝️ 🇷🇪 Saint Leu",
    "city": "Saint Leu",
    "country": "RE",
    "lat": -21.17,
    "lng": 55.29,
    "url": "https://images.webcamgalore.com/35234-current-webcam-Saint-Leu.jpg",
    "refreshSec": 15,
    "width": 4926,
    "height": 2463,
    "num": 230,
    "type": "jpeg",
    "lon": 55.29
  },
  {
    "id": "re-saint-paul",
    "name": "🇷🇪 Saint Paul, Reunion",
    "city": "Saint Paul",
    "country": "RE",
    "lat": -21.0695992,
    "lng": 55.2206993,
    "url": "https://images.webcamgalore.com/34119-current-webcam-Saint-Paul.jpg",
    "refreshSec": 30,
    "width": 1920,
    "height": 1080,
    "num": 231,
    "type": "jpeg",
    "lon": 55.2206993
  },
  {
    "id": "ro-buzau",
    "name": "🏙️ 🇷🇴 Buzau",
    "city": "Buzau",
    "country": "RO",
    "lat": 45.15,
    "lng": 26.82,
    "url": "https://images.webcamgalore.com/38119-current-webcam-Buzau.jpg",
    "refreshSec": 15,
    "width": 1920,
    "height": 1080,
    "num": 232,
    "type": "jpeg",
    "lon": 26.82
  },
  {
    "id": "ro-buzau-2",
    "name": "🇷🇴 Buzau, Romania",
    "city": "Buzau",
    "country": "RO",
    "lat": 45.1530991,
    "lng": 26.8211002,
    "url": "https://images.webcamgalore.com/33008-current-webcam-Buzau.jpg",
    "refreshSec": 30,
    "width": 1280,
    "height": 960,
    "num": 233,
    "type": "jpeg",
    "lon": 26.8211002
  },
  {
    "id": "ro-eforie",
    "name": "🏖️ 🇷🇴 Eforie",
    "city": "Eforie",
    "country": "RO",
    "lat": 44.04,
    "lng": 28.65,
    "url": "https://images.webcamgalore.com/37992-current-webcam-Eforie.jpg",
    "refreshSec": 15,
    "width": 1920,
    "height": 1080,
    "num": 234,
    "type": "jpeg",
    "lon": 28.65
  },
  {
    "id": "ro-vama-veche",
    "name": "🇷🇴 Vama Veche, Romania",
    "city": "Vama Veche",
    "country": "RO",
    "lat": 43.7490997,
    "lng": 28.5755997,
    "url": "https://images.webcamgalore.com/33862-current-webcam-Vama-Veche.jpg",
    "refreshSec": 30,
    "width": 1280,
    "height": 720,
    "num": 235,
    "type": "jpeg",
    "lon": 28.5755997
  },
  {
    "id": "ro-alephnews",
    "name": "📡 Aleph News",
    "city": "布加勒斯特",
    "country": "RO",
    "lat": 44.43,
    "lng": 26.1,
    "url": "https://stream-aleph.m.ro/Aleph/ngrp:Alephnewsmain.stream_all/playlist.m3u8",
    "width": 1280,
    "height": 720,
    "streamType": "hls",
    "refreshSec": 0,
    "num": 236,
    "live": true,
    "type": "hls",
    "lon": 26.1
  },
  {
    "id": "ru-kingisepp",
    "name": "🏰 🇷🇺 Kingisepp",
    "city": "Kingisepp",
    "country": "RU",
    "lat": 59.37,
    "lng": 28.6,
    "url": "https://images.webcamgalore.com/30897-current-webcam-Kingisepp.jpg",
    "refreshSec": 15,
    "width": 1280,
    "height": 960,
    "num": 237,
    "type": "jpeg",
    "lon": 28.6
  },
  {
    "id": "ru-korotetskaya",
    "name": "🌲 🇷🇺 Korotetskaya",
    "city": "Korotetskaya",
    "country": "RU",
    "lat": 60.2,
    "lng": 38.5,
    "url": "https://images.webcamgalore.com/30911-current-webcam-Korotetskaya.jpg",
    "refreshSec": 15,
    "width": 1920,
    "height": 1080,
    "num": 238,
    "type": "jpeg",
    "lon": 38.5
  },
  {
    "id": "ru-ryazan",
    "name": "🇷🇺 Ryazan, Russia",
    "city": "Ryazan",
    "country": "RU",
    "lat": 54.6259995,
    "lng": 39.7448006,
    "url": "https://images.webcamgalore.com/30885-current-webcam-Ryazan.jpg",
    "refreshSec": 30,
    "width": 1920,
    "height": 1080,
    "num": 239,
    "type": "jpeg",
    "lon": 39.7448006
  },
  {
    "id": "ru-360news",
    "name": "📡 360° Новости · 俄罗斯",
    "city": "莫斯科",
    "country": "RU",
    "lat": 55.75,
    "lng": 37.62,
    "url": "https://live-vgtrksmotrim.cdnvideo.ru/vgtrksmotrim/smotrim-live-03-srt.smil/playlist.m3u8",
    "refreshSec": 0,
    "num": 240,
    "width": 1920,
    "height": 1080,
    "streamType": "hls",
    "live": true,
    "type": "hls",
    "lon": 37.62
  },
  {
    "id": "sa-alarabiya",
    "name": "📡 Al Arabiya English",
    "city": "迪拜",
    "country": "SA",
    "lat": 24.71,
    "lng": 46.68,
    "url": "https://live.alarabiya.net/alarabiapublish/english/playlist_dvr.m3u8",
    "width": 1920,
    "height": 1080,
    "streamType": "hls",
    "refreshSec": 0,
    "num": 241,
    "live": true,
    "type": "hls",
    "lon": 46.68
  },
  {
    "id": "se-gothenburg",
    "name": "🏙️ 🇸🇪 Gothenburg",
    "city": "Gothenburg",
    "country": "SE",
    "lat": 57.71,
    "lng": 11.97,
    "url": "https://images.webcamgalore.com/2935-current-webcam-Gothenburg.jpg",
    "refreshSec": 15,
    "width": 1920,
    "height": 1080,
    "num": 242,
    "type": "jpeg",
    "lon": 11.97
  },
  {
    "id": "sg-cna",
    "name": "📡 CNA · 亚洲新闻台",
    "city": "新加坡",
    "country": "SG",
    "lat": 1.35,
    "lng": 103.82,
    "url": "https://d2e1asnsl7br7b.cloudfront.net/7782e205e72f43aeb4a48ec97f66ebbe/index_4.m3u8",
    "streamType": "hls",
    "refreshSec": 15,
    "width": 640,
    "height": 360,
    "num": 243,
    "type": "hls",
    "lon": 103.82
  },
  {
    "id": "si-ljubljana",
    "name": "🇸🇮 Ljubljana, Slovenia",
    "city": "Ljubljana",
    "country": "SI",
    "lat": 46.0547981,
    "lng": 14.4708996,
    "url": "https://images.webcamgalore.com/23113-current-webcam-Ljubljana.jpg",
    "refreshSec": 30,
    "width": 1920,
    "height": 1080,
    "num": 244,
    "type": "jpeg",
    "lon": 14.4708996
  },
  {
    "id": "si-rogla",
    "name": "🇸🇮 Rogla, Slovenia",
    "city": "Rogla",
    "country": "SI",
    "lat": 46.4560013,
    "lng": 15.3366003,
    "url": "https://images.webcamgalore.com/35228-current-webcam-Rogla.jpg",
    "refreshSec": 30,
    "width": 1280,
    "height": 720,
    "num": 245,
    "type": "jpeg",
    "lon": 15.3366003
  },
  {
    "id": "si-slovenj-gradec",
    "name": "🇸🇮 Slovenj Gradec, Slovenia",
    "city": "Slovenj Gradec",
    "country": "SI",
    "lat": 46.5066986,
    "lng": 15.1774998,
    "url": "https://images.webcamgalore.com/38270-current-webcam-Slovenj-Gradec.jpg",
    "refreshSec": 30,
    "width": 1920,
    "height": 1080,
    "num": 246,
    "type": "jpeg",
    "lon": 15.1774998
  },
  {
    "id": "si-velenje",
    "name": "🇸🇮 Velenje, Slovenia",
    "city": "Velenje",
    "country": "SI",
    "lat": 46.3702011,
    "lng": 15.0854998,
    "url": "https://images.webcamgalore.com/38431-current-webcam-Velenje.jpg",
    "refreshSec": 30,
    "width": 1280,
    "height": 720,
    "num": 247,
    "type": "jpeg",
    "lon": 15.0854998
  },
  {
    "id": "th-bangkok",
    "name": "🏙️ 曼谷 · 都市天际线",
    "city": "Bangkok",
    "country": "TH",
    "lat": 13.75,
    "lng": 100.5,
    "url": "https://images.webcamgalore.com/37005-current-webcam-Bangkok.jpg",
    "refreshSec": 15,
    "width": 1920,
    "height": 1080,
    "num": 248,
    "type": "jpeg",
    "lon": 100.5
  },
  {
    "id": "th-chiang-mai",
    "name": "🏯 清迈 · 古城寺庙",
    "city": "Chiang Mai",
    "country": "TH",
    "lat": 18.79,
    "lng": 98.99,
    "url": "https://images.webcamgalore.com/37050-current-webcam-Chiang-Mai.jpg",
    "refreshSec": 15,
    "width": 1920,
    "height": 1080,
    "num": 249,
    "type": "jpeg",
    "lon": 98.99
  },
  {
    "id": "th-phuket",
    "name": "🏖️ 普吉岛 · 安达曼海",
    "city": "Phuket",
    "country": "TH",
    "lat": 7.88,
    "lng": 98.4,
    "url": "https://images.webcamgalore.com/37020-current-webcam-Phuket.jpg",
    "refreshSec": 15,
    "width": 1920,
    "height": 1080,
    "num": 250,
    "type": "jpeg",
    "lon": 98.4
  },
  {
    "id": "tr-trthaber",
    "name": "📡 TRT Haber · 土耳其",
    "city": "Ankara",
    "country": "TR",
    "lat": 39.9,
    "lng": 32.9,
    "url": "https://tv-trthaber.medya.trt.com.tr/master.m3u8",
    "streamType": "hls",
    "refreshSec": 15,
    "width": 1280,
    "height": 720,
    "num": 251,
    "type": "hls",
    "lon": 32.9
  },
  {
    "id": "tr-antalya-2",
    "name": "🇹🇷 Antalya, Turkey",
    "city": "Antalya",
    "country": "TR",
    "lat": 36.8976059,
    "lng": 30.6611252,
    "url": "https://images.webcamgalore.com/4361-current-webcam-Antalya.jpg",
    "refreshSec": 30,
    "width": 1920,
    "height": 1080,
    "num": 252,
    "type": "jpeg",
    "lon": 30.6611252
  },
  {
    "id": "tr-antalya",
    "name": "🇹🇷 Antalya, Turkey",
    "city": "Antalya",
    "country": "TR",
    "lat": 36.9121017,
    "lng": 31.2050991,
    "url": "https://images.webcamgalore.com/584-current-webcam-Antalya.jpg",
    "refreshSec": 30,
    "width": 1920,
    "height": 1080,
    "num": 253,
    "type": "jpeg",
    "lon": 31.2050991
  },
  {
    "id": "tr-trtworld",
    "name": "📡 TRT World · 土耳其",
    "city": "Istanbul",
    "country": "TR",
    "lat": 41.0,
    "lng": 29.0,
    "url": "https://tv-trtworld.medya.trt.com.tr/master.m3u8",
    "streamType": "hls",
    "refreshSec": 15,
    "width": 1920,
    "height": 1080,
    "num": 254,
    "type": "hls",
    "lon": 29.0
  },
  {
    "id": "tr-izmir",
    "name": "🇹🇷 Izmir, Turkey",
    "city": "Izmir",
    "country": "TR",
    "lat": 38.4184952,
    "lng": 27.1297073,
    "url": "https://images.webcamgalore.com/4420-current-webcam-Izmir.jpg",
    "refreshSec": 30,
    "width": 1920,
    "height": 1080,
    "num": 255,
    "type": "jpeg",
    "lon": 27.1297073
  },
  {
    "id": "tr-side",
    "name": "🇹🇷 Side, Turkey",
    "city": "Side",
    "country": "TR",
    "lat": 36.7984009,
    "lng": 31.3644009,
    "url": "https://images.webcamgalore.com/34937-current-webcam-Side.jpg",
    "refreshSec": 30,
    "width": 1920,
    "height": 1080,
    "num": 256,
    "type": "jpeg",
    "lon": 31.3644009
  },
  {
    "id": "tr-360tv",
    "name": "📺 360 TV Turkey",
    "city": "伊斯坦布尔",
    "country": "TR",
    "lat": 41.01,
    "lng": 28.98,
    "url": "https://turkmedya-live.ercdn.net/tv360/tv360.m3u8",
    "width": 640,
    "height": 360,
    "streamType": "hls",
    "refreshSec": 0,
    "num": 257,
    "live": true,
    "type": "hls",
    "lon": 28.98
  },
  {
    "id": "tw-dali",
    "name": "📺 大立電視台",
    "city": "高雄",
    "country": "TW",
    "lat": 22.63,
    "lng": 120.3,
    "url": "http://www.dalitv.com.tw:4568/live/dali/index.m3u8",
    "streamType": "hls",
    "refreshSec": 15,
    "width": 1280,
    "height": 720,
    "num": 258,
    "type": "hls",
    "lon": 120.3
  },
  {
    "id": "ua-kacha",
    "name": "🇺🇦 Kacha, Ukraine",
    "city": "Kacha",
    "country": "UA",
    "lat": 44.7778015,
    "lng": 33.5452995,
    "url": "https://images.webcamgalore.com/30876-current-webcam-Kacha.jpg",
    "refreshSec": 30,
    "width": 1280,
    "height": 720,
    "num": 259,
    "type": "jpeg",
    "lon": 33.5452995
  },
  {
    "id": "us-hatteras",
    "name": "🏄 哈特拉斯角 · 冲浪",
    "city": "Cape Hatteras",
    "country": "US",
    "lat": 35.21,
    "lng": -75.52,
    "url": "https://camstills.cdn-surfline.com/us-east-2/ec-capehatteras2nd/latest_full.jpg",
    "refreshSec": 12,
    "num": 260,
    "width": 1280,
    "height": 720,
    "type": "jpeg",
    "lon": -75.52
  },
  {
    "id": "us-caribbean-princess",
    "name": "🇺🇸 Caribbean Princess, Princess Cruises",
    "city": "Caribbean Princess",
    "country": "US",
    "lat": 21.4266586,
    "lng": -71.1466599,
    "url": "https://images.webcamgalore.com/951-current-webcam-Caribbean-Princess.jpg",
    "refreshSec": 30,
    "width": 1280,
    "height": 720,
    "num": 261,
    "type": "jpeg",
    "lon": -71.1466599
  },
  {
    "id": "us-glacier",
    "name": "🏔️ 冰川公园 · 阿普加",
    "city": "Glacier NP",
    "country": "US",
    "lat": 48.5,
    "lng": -114.02,
    "url": "https://www.nps.gov/webcams-glac/ApgarLookout-01.jpg",
    "refreshSec": 15,
    "num": 262,
    "width": 1920,
    "height": 1080,
    "type": "jpeg",
    "lon": -114.02
  },
  {
    "id": "us-pipeline",
    "name": "🌊 筒管浪 · 北岸",
    "city": "Haleiwa",
    "country": "US",
    "lat": 21.68,
    "lng": -158.05,
    "url": "https://camstills.cdn-surfline.com/us-west-2/hi-banzaipipeline/latest_full.jpg",
    "refreshSec": 10,
    "num": 263,
    "width": 1280,
    "height": 720,
    "type": "jpeg",
    "lon": -158.05
  },
  {
    "id": "us-alamoana",
    "name": "🌴 阿拉莫阿纳 · 碗浪",
    "city": "Honolulu",
    "country": "US",
    "lat": 21.28,
    "lng": -157.88,
    "url": "https://camstills.cdn-surfline.com/us-west-2/hi-alamoanabowls/latest_full.jpg",
    "refreshSec": 10,
    "num": 264,
    "width": 1280,
    "height": 720,
    "type": "jpeg",
    "lon": -157.88
  },
  {
    "id": "us-waikiki",
    "name": "🌴 威基基 · 海滩",
    "city": "Honolulu",
    "country": "US",
    "lat": 21.3,
    "lng": -157.8,
    "url": "https://camstills.cdn-surfline.com/us-west-2/hi-waikikibeach/latest_full.jpg",
    "refreshSec": 10,
    "num": 265,
    "width": 1280,
    "height": 720,
    "type": "jpeg",
    "lon": -157.8
  },
  {
    "id": "us-huntington",
    "name": "🏄 亨廷顿 · 9街",
    "city": "Huntington Beach",
    "country": "US",
    "lat": 33.85,
    "lng": -118.15,
    "url": "https://camstills.cdn-surfline.com/us-west-2/wc-9thstov/latest_full.jpg",
    "refreshSec": 12,
    "num": 266,
    "width": 1280,
    "height": 720,
    "type": "jpeg",
    "lon": -118.15
  },
  {
    "id": "us-jacksonville",
    "name": "🌊 杰克逊维尔 · 码头",
    "city": "Jacksonville Beach",
    "country": "US",
    "lat": 30.29,
    "lng": -81.4,
    "url": "https://camstills.cdn-surfline.com/us-east-2/ec-jaxpierss/latest_full.jpg",
    "refreshSec": 12,
    "num": 267,
    "width": 1280,
    "height": 720,
    "type": "jpeg",
    "lon": -81.4
  },
  {
    "id": "us-lajolla",
    "name": "🏖️ 拉霍亚 · 黑滩",
    "city": "La Jolla",
    "country": "US",
    "lat": 32.6,
    "lng": -117.25,
    "url": "https://camstills.cdn-surfline.com/us-west-2/wc-blacksov/latest_full.jpg",
    "refreshSec": 12,
    "num": 268,
    "width": 1280,
    "height": 720,
    "type": "jpeg",
    "lon": -117.25
  },
  {
    "id": "us-manasquan",
    "name": "🏄 马纳斯宽 · 冲浪",
    "city": "Manasquan",
    "country": "US",
    "lat": 40.0,
    "lng": -74.1,
    "url": "https://camstills.cdn-surfline.com/us-east-2/ec-manasquan/latest_full.jpg",
    "refreshSec": 12,
    "num": 269,
    "width": 1280,
    "height": 720,
    "type": "jpeg",
    "lon": -74.1
  },
  {
    "id": "us-rainier",
    "name": "🏔️ 雷尼尔山 · 国家公园",
    "city": "Mount Rainier NP",
    "country": "US",
    "lat": 46.79,
    "lng": -121.74,
    "url": "https://www.nps.gov/webcams-mora/east.jpg",
    "refreshSec": 15,
    "num": 270,
    "width": 1920,
    "height": 1080,
    "type": "jpeg",
    "lon": -121.74
  },
  {
    "id": "us-newsmyrna",
    "name": "🏖️ 新士麦那 · 海滩",
    "city": "New Smyrna Beach",
    "country": "US",
    "lat": 29.03,
    "lng": -80.93,
    "url": "https://camstills.cdn-surfline.com/us-east-2/ec-newsmyrna/latest_full.jpg",
    "refreshSec": 12,
    "num": 271,
    "width": 1280,
    "height": 720,
    "type": "jpeg",
    "lon": -80.93
  },
  {
    "id": "us-rockaway110",
    "name": "🏖️ 皇后区 · 洛克威110街",
    "city": "New York",
    "country": "US",
    "lat": 40.7,
    "lng": -73.7,
    "url": "https://camstills.cdn-surfline.com/us-east-2/ec-rockaway110th/latest_full.jpg",
    "refreshSec": 12,
    "num": 272,
    "width": 1280,
    "height": 720,
    "type": "jpeg",
    "lon": -73.7
  },
  {
    "id": "us-newport",
    "name": "🏄 新港滩 · 邦亚德",
    "city": "Newport Beach",
    "country": "US",
    "lat": 33.4,
    "lng": -117.75,
    "url": "https://camstills.cdn-surfline.com/us-west-2/wc-boneyardcloseup/latest_full.jpg",
    "refreshSec": 12,
    "num": 273,
    "width": 1280,
    "height": 720,
    "type": "jpeg",
    "lon": -117.75
  },
  {
    "id": "us-santacruz",
    "name": "🏄 圣克鲁兹 · 狗滩",
    "city": "Santa Cruz",
    "country": "US",
    "lat": 36.95,
    "lng": -121.97,
    "url": "https://camstills.cdn-surfline.com/us-west-2/wc-dogpatch/latest_full.jpg",
    "refreshSec": 12,
    "num": 274,
    "width": 1280,
    "height": 720,
    "type": "jpeg",
    "lon": -121.97
  },
  {
    "id": "us-seattle",
    "name": "🏙️ 西雅图 · 全景",
    "city": "Seattle",
    "country": "US",
    "lat": 47.59,
    "lng": -122.33,
    "url": "https://cdn.tegna-media.com/king/weather/roofcam1.jpg",
    "refreshSec": 12,
    "num": 275,
    "width": 1920,
    "height": 1080,
    "type": "jpeg",
    "lon": -122.33
  },
  {
    "id": "us-westport",
    "name": "🌊 西港 · 太平洋",
    "city": "Westport",
    "country": "US",
    "lat": 46.89,
    "lng": -124.11,
    "url": "https://camstills.cdn-surfline.com/us-west-2/wc-westport/latest_full.jpg",
    "refreshSec": 12,
    "num": 276,
    "width": 1280,
    "height": 720,
    "type": "jpeg",
    "lon": -124.11
  },
  {
    "id": "us-yellowstone-east",
    "name": "🌋 黄石公园 · 东入口",
    "city": "Yellowstone NP",
    "country": "US",
    "lat": 44.35,
    "lng": -110.5,
    "url": "https://www.nps.gov/webcams-yell/east_in.jpg",
    "refreshSec": 15,
    "num": 277,
    "width": 1920,
    "height": 1080,
    "type": "jpeg",
    "lon": -110.5
  },
  {
    "id": "us-yellowstone-mammoth",
    "name": "🌋 黄石 · 猛犸温泉",
    "city": "Yellowstone NP",
    "country": "US",
    "lat": 44.75,
    "lng": -110.95,
    "url": "https://www.nps.gov/webcams-yell/mammoth_arch.jpg",
    "refreshSec": 15,
    "num": 278,
    "width": 1920,
    "height": 1080,
    "type": "jpeg",
    "lon": -110.95
  },
  {
    "id": "us-americasvoice",
    "name": "📡 America's Voice · 美国",
    "city": "华盛顿",
    "country": "US",
    "lat": 38.91,
    "lng": -77.04,
    "url": "https://content.uplynk.com/channel/26bd482ffe364a1282bc3df28bd3c21f.m3u8",
    "refreshSec": 0,
    "num": 279,
    "width": 1920,
    "height": 1080,
    "streamType": "hls",
    "live": true,
    "type": "hls",
    "lon": -77.04
  },
  {
    "id": "us-cbsnews",
    "name": "📡 CBS News · 美国新闻",
    "city": "华盛顿",
    "country": "US",
    "lat": 38.91,
    "lng": -77.04,
    "url": "https://cbsn-us.cbsnstream.cbsnews.com/out/v1/55a8648e8f134e82a470f83d562deeca/master.m3u8",
    "streamType": "hls",
    "refreshSec": 15,
    "width": 1280,
    "height": 720,
    "num": 280,
    "type": "hls",
    "lon": -77.04
  },
  {
    "id": "us-30atv",
    "name": "🏖️ 30A TV · 佛罗里达海滩",
    "city": "圣罗莎海滩",
    "country": "US",
    "lat": 30.33,
    "lng": -86.22,
    "url": "https://30a-tv.com/ln.m3u8",
    "refreshSec": 0,
    "num": 281,
    "width": 640,
    "height": 360,
    "streamType": "hls",
    "live": true,
    "type": "hls",
    "lon": -86.22
  },
  {
    "id": "us-30a-gh",
    "name": "🎬 30A Georgia Hollywood",
    "city": "圣罗莎海滩",
    "country": "US",
    "lat": 30.33,
    "lng": -86.22,
    "url": "https://30a-tv.com/gh.m3u8",
    "width": 1280,
    "height": 720,
    "streamType": "hls",
    "refreshSec": 0,
    "num": 282,
    "live": true,
    "type": "hls",
    "lon": -86.22
  },