[
  {
    "id": "jp-nhkworld",
    "name": "📡 NHK World Japan",
    "city": "東京",
    "country": "JP",
    "lat": 36.2,
    "lng": 140.3,
    "url": "https://masterpl.hls.nhkworld.jp/hls/w/live/smarttv.m3u8",
    "streamType": "hls",
    "refreshSec": 15,
    "width": 1920,
    "height": 1080,
    "num": 1
  },
  {
    "id": "au-tbnpacific",
    "name": "📡 TBN 太平洋",
    "city": "布里斯班",
    "country": "AU",
    "lat": -27.47,
    "lng": 153.03,
    "url": "https://broadcast.tbnpacific.org.au:4430/stream/TBNPacificTV/playlist.m3u8",
    "streamType": "hls",
    "refreshSec": 15,
    "width": 1920,
    "height": 1080,
    "num": 1
  },
  {
    "id": "au-abcnews",
    "name": "📡 ABC News · 澳大利亚",
    "city": "Sydney",
    "country": "AU",
    "lat": -33.9,
    "lng": 151.2,
    "url": "https://abc-news-dmd-streams-1.akamaized.net/out/v1/701126012d044971b3fa89406a440133/index.m3u8",
    "streamType": "hls",
    "refreshSec": 15,
    "width": 1280,
    "height": 720,
    "num": 2
  },
  {
    "id": "tr-trtworld",
    "name": "📡 TRT World · 土耳其",
    "city": "Istanbul",
    "country": "TR",
    "lat": 41.0,
    "lng": 29.0,
    "url": "https://tv-trtworld.medya.trt.com.tr/master.m3u8",
    "streamType": "hls",
    "refreshSec": 15,
    "width": 1920,
    "height": 1080,
    "num": 1
  },
  {
    "id": "tr-trthaber",
    "name": "📡 TRT Haber · 土耳其",
    "city": "Ankara",
    "country": "TR",
    "lat": 39.9,
    "lng": 32.9,
    "url": "https://tv-trthaber.medya.trt.com.tr/master.m3u8",
    "streamType": "hls",
    "refreshSec": 15,
    "width": 1280,
    "height": 720,
    "num": 2
  },
  {
    "id": "ru-360news",
    "name": "📡 360° Новости · 俄罗斯",
    "city": "莫斯科",
    "country": "RU",
    "lat": 55.75,
    "lng": 37.62,
    "url": "https://live-vgtrksmotrim.cdnvideo.ru/vgtrksmotrim/smotrim-live-03-srt.smil/playlist.m3u8",
    "refreshSec": 0,
    "num": 18,
    "width": 1920,
    "height": 1080,
    "streamType": "hls",
    "live": true
  },
  {
    "id": "qa-alaraby",
    "name": "📡 Al Araby TV · 阿拉伯",
    "city": "多哈",
    "country": "QA",
    "lat": 25.29,
    "lng": 51.53,
    "url": "https://live.kwikmotion.com/alaraby1live/alaraby_abr/playlist.m3u8",
    "refreshSec": 0,
    "num": 18,
    "width": 1920,
    "height": 1080,
    "streamType": "hls",
    "live": true
  },
  {
    "id": "us-tubi-abc9",
    "name": "📺 ABC 9 曼彻斯特 · Tubi",
    "city": "曼彻斯特",
    "country": "US",
    "lat": 42.99,
    "lng": -71.46,
    "url": "https://aegis-cloudfront-1.tubi.video/b77ffe96-c5d1-43a7-8687-306ff244d725/playlist.m3u8",
    "refreshSec": 0,
    "num": 18,
    "width": 1280,
    "height": 720,
    "streamType": "hls",
    "live": true
  },
  {
    "id": "cn-shangyu",
    "name": "🏙️ 上虞 · 城市风光",
    "city": "绍兴",
    "country": "CN",
    "lat": 30.03,
    "lng": 120.87,
    "url": "https://l.cztvcloud.com/channels/lantian/SXshangyu1/720p.m3u8",
    "width": 1280,
    "height": 720,
    "streamType": "hls",
    "refreshSec": 0,
    "num": 18,
    "live": true
  },
  {
    "id": "kr-cjb",
    "name": "📺 CJB TV",
    "city": "清州",
    "country": "KR",
    "lat": 36.64,
    "lng": 127.49,
    "url": "http://1.222.207.80:1935/live/cjbtv/playlist.m3u8",
    "width": 1280,
    "height": 720,
    "streamType": "hls",
    "refreshSec": 0,
    "num": 18,
    "live": true
  },
  {
    "id": "ke-africa24en",
    "name": "📡 Africa 24 English",
    "city": "内罗毕",
    "country": "KE",
    "lat": -1.29,
    "lng": 36.82,
    "url": "https://edge20.vedge.infomaniak.com/livecast/ik:africa24english/manifest.m3u8",
    "width": 1920,
    "height": 1080,
    "streamType": "hls",
    "refreshSec": 0,
    "num": 18,
    "live": true
  },
  {
    "id": "pt-kmusic",
    "name": "🎵 KMusic · 葡萄牙",
    "city": "里斯本",
    "country": "PT",
    "lat": 38.72,
    "lng": -9.14,
    "url": "http://195.23.211.179:1935/kmusic/smil:kmusic.smil/playlist.m3u8",
    "width": 1280,
    "height": 720,
    "streamType": "hls",
    "refreshSec": 0,
    "num": 18,
    "live": true
  },
  {
    "id": "sa-alarabiya",
    "name": "📡 Al Arabiya English",
    "city": "迪拜",
    "country": "SA",
    "lat": 24.71,
    "lng": 46.68,
    "url": "https://live.alarabiya.net/alarabiapublish/english/playlist_dvr.m3u8",
    "width": 1920,
    "height": 1080,
    "streamType": "hls",
    "refreshSec": 0,
    "num": 18,
    "live": true
  },
  {
    "id": "jo-alsharqiya",
    "name": "📡 Al-Sharqiya News",
    "city": "安曼",
    "country": "JO",
    "lat": 31.95,
    "lng": 35.93,
    "url": "https://5d94523502c2d.streamlock.net/alsharqiyalive/mystream/playlist.m3u8",
    "width": 1920,
    "height": 1080,
    "streamType": "hls",
    "refreshSec": 0,
    "num": 18,
    "live": true
  },
  {
    "id": "gb-92news",
    "name": "📡 92 News HD",
    "city": "伦敦",
    "country": "GB",
    "lat": 51.51,
    "lng": -0.13,
    "url": "http://92news.vdn.dstreamone.net/92newshd/92hd/playlist.m3u8",
    "width": 1280,
    "height": 720,
    "streamType": "hls",
    "refreshSec": 0,
    "num": 18,
    "live": true
  },
  {
    "id": "ro-alephnews",
    "name": "📡 Aleph News",
    "city": "布加勒斯特",
    "country": "RO",
    "lat": 44.43,
    "lng": 26.1,
    "url": "https://stream-aleph.m.ro/Aleph/ngrp:Alephnewsmain.stream_all/playlist.m3u8",
    "width": 1280,
    "height": 720,
    "streamType": "hls",
    "refreshSec": 0,
    "num": 18,
    "live": true
  },
  {
    "id": "in-10tv",
    "name": "📺 10 TV India",
    "city": "海得拉巴",
    "country": "IN",
    "lat": 17.39,
    "lng": 78.49,
    "url": "https://mumbai-edge.smartplaytv.in/10TV/index.m3u8",
    "width": 1280,
    "height": 720,
    "streamType": "hls",
    "refreshSec": 0,
    "num": 18,
    "live": true
  },
  {
    "id": "in-abn-andhra",
    "name": "📡 ABN Andhra Jyoti",
    "city": "海得拉巴",
    "country": "IN",
    "lat": 17.39,
    "lng": 78.49,
    "url": "https://mumbai-edge.smartplaytv.in/ABNAJ/index.m3u8",
    "width": 1280,
    "height": 720,
    "streamType": "hls",
    "refreshSec": 0,
    "num": 18,
    "live": true
  },
  {
    "id": "br-agromais",
    "name": "🌾 AgroMais 巴西农业",
    "city": "圣保罗",
    "country": "BR",
    "lat": -23.55,
    "lng": -46.63,
    "url": "http://45.162.64.114/AGROMAIS/index.m3u8",
    "width": 1280,
    "height": 720,
    "streamType": "hls",
    "refreshSec": 0,
    "num": 18,
    "live": true
  },
  {
    "id": "us-30a-gh",
    "name": "🎬 30A Georgia Hollywood",
    "city": "圣罗莎海滩",
    "country": "US",
    "lat": 30.33,
    "lng": -86.22,
    "url": "https://30a-tv.com/gh.m3u8",
    "width": 1280,
    "height": 720,
    "streamType": "hls",
    "refreshSec": 0,
    "num": 18,
    "live": true
  },
  {
    "id": "mx-acustik",
    "name": "🎵 Acustik TV 墨西哥",
    "city": "墨西哥城",
    "country": "MX",
    "lat": 19.43,
    "lng": -99.13,
    "url": "https://s5.mexside.net:1936/clientetv/clientetv/playlist.m3u8",
    "width": 1280,
    "height": 720,
    "streamType": "hls",
    "refreshSec": 0,
    "num": 18,
    "live": true
  },
  {
    "id": "cn-jinyun1",
    "name": "🏞️ 缙云 · 城市风光",
    "city": "缙云",
    "country": "CN",
    "lat": 28.66,
    "lng": 120.09,
    "url": "https://l.cztvcloud.com/channels/lantian/SXjinyun1/720p.m3u8",
    "refreshSec": 99,
    "width": 1280,
    "height": 720,
    "streamType": "hls"
  },
  {
    "id": "cn-jinyun2",
    "name": "🏞️ 缙云 · 风光2号机",
    "city": "缙云",
    "country": "CN",
    "lat": 28.66,
    "lng": 120.42,
    "url": "https://l.cztvcloud.com/channels/lantian/SXjinyun2/720p.m3u8",
    "refreshSec": 99,
    "width": 1280,
    "height": 720,
    "streamType": "hls"
  },
  {
    "id": "cn-jinyun3",
    "name": "🏞️ 缙云 · 风光3号机",
    "city": "缙云",
    "country": "CN",
    "lat": 28.94,
    "lng": 120.09,
    "url": "https://l.cztvcloud.com/channels/lantian/SXjinyun3/720p.m3u8",
    "refreshSec": 99,
    "width": 1280,
    "height": 720,
    "streamType": "hls"
  },
  {
    "id": "cn-longquan",
    "name": "⛰️ 龙泉 · 城市风光",
    "city": "龙泉",
    "country": "CN",
    "lat": 28.07,
    "lng": 119.14,
    "url": "https://l.cztvcloud.com/channels/lantian/SXlongquan1/720p.m3u8",
    "refreshSec": 99,
    "width": 1280,
    "height": 720,
    "streamType": "hls"
  },
  {
    "id": "cn-longyou1",
    "name": "🏞️ 龙游 · 城市风光",
    "city": "龙游",
    "country": "CN",
    "lat": 29.03,
    "lng": 119.17,
    "url": "https://l.cztvcloud.com/channels/lantian/SXlongyou1/720p.m3u8",
    "refreshSec": 99,
    "width": 1280,
    "height": 720,
    "streamType": "hls"
  },
  {
    "id": "cn-longyou2",
    "name": "🏞️ 龙游 · 风光2号机",
    "city": "龙游",
    "country": "CN",
    "lat": 29.03,
    "lng": 118.84,
    "url": "https://l.cztvcloud.com/channels/lantian/SXlongyou2/720p.m3u8",
    "refreshSec": 99,
    "width": 1280,
    "height": 720,
    "streamType": "hls"
  },
  {
    "id": "cn-pinghu1",
    "name": "🌊 平湖 · 城市风光",
    "city": "平湖",
    "country": "CN",
    "lat": 30.68,
    "lng": 121.02,
    "url": "https://l.cztvcloud.com/channels/lantian/SXpinghu1/720p.m3u8",
    "refreshSec": 99,
    "width": 1280,
    "height": 720,
    "streamType": "hls"
  },
  {
    "id": "cn-pinghu4",
    "name": "🌊 平湖 · 风光4号机",
    "city": "平湖",
    "country": "CN",
    "lat": 30.68,
    "lng": 120.72,
    "url": "https://l.cztvcloud.com/channels/lantian/SXpinghu4/720p.m3u8",
    "refreshSec": 99,
    "width": 1280,
    "height": 720,
    "streamType": "hls"
  },
  {
    "id": "cn-qingtian",
    "name": "🏞️ 青田 · 城市风光",
    "city": "青田",
    "country": "CN",
    "lat": 28.14,
    "lng": 120.29,
    "url": "https://l.cztvcloud.com/channels/lantian/SXqingtian1/720p.m3u8",
    "refreshSec": 99,
    "width": 1280,
    "height": 720,
    "streamType": "hls"
  },
  {
    "id": "cn-shangyu2",
    "name": "🏙️ 上虞 · 风光2号机",
    "city": "上虞",
    "country": "CN",
    "lat": 30.03,
    "lng": 121.2,
    "url": "https://l.cztvcloud.com/channels/lantian/SXshangyu2/720p.m3u8",
    "refreshSec": 99,
    "width": 1280,
    "height": 720,
    "streamType": "hls"
  },
  {
    "id": "cn-shangyu3",
    "name": "🏙️ 上虞 · 风光3号机",
    "city": "上虞",
    "country": "CN",
    "lat": 30.33,
    "lng": 121.04,
    "url": "https://l.cztvcloud.com/channels/lantian/SXshangyu3/720p.m3u8",
    "refreshSec": 99,
    "width": 1280,
    "height": 720,
    "streamType": "hls"
  },
  {
    "id": "cn-shengzhou",
    "name": "🏞️ 嵊州 · 城市风光",
    "city": "嵊州",
    "country": "CN",
    "lat": 29.59,
    "lng": 120.82,
    "url": "https://l.cztvcloud.com/channels/lantian/SXshengzhou1/720p.m3u8",
    "refreshSec": 99,
    "width": 1280,
    "height": 720,
    "streamType": "hls"
  },
  {
    "id": "cn-songyang",
    "name": "🏡 松阳 · 城市风光",
    "city": "松阳",
    "country": "CN",
    "lat": 28.45,
    "lng": 119.48,
    "url": "https://l.cztvcloud.com/channels/lantian/SXsongyang1/720p.m3u8",
    "refreshSec": 99,
    "width": 1280,
    "height": 720,
    "streamType": "hls"
  },
  {
    "id": "cn-xiangshan",
    "name": "⛵ 象山 · 城市风光",
    "city": "象山",
    "country": "CN",
    "lat": 29.48,
    "lng": 121.87,
    "url": "https://l.cztvcloud.com/channels/lantian/SXxiangshan1/720p.m3u8",
    "refreshSec": 99,
    "width": 1280,
    "height": 720,
    "streamType": "hls"
  },
  {
    "id": "cn-xiaoshan1",
    "name": "🌉 萧山 · 城市风光",
    "city": "萧山",
    "country": "CN",
    "lat": 30.19,
    "lng": 120.26,
    "url": "https://l.cztvcloud.com/channels/lantian/SXxiaoshan1/720p.m3u8",
    "refreshSec": 99,
    "width": 1280,
    "height": 720,
    "streamType": "hls"
  },
  {
    "id": "cn-xiaoshan2",
    "name": "🌉 萧山 · 风光2号机",
    "city": "萧山",
    "country": "CN",
    "lat": 30.19,
    "lng": 119.93,
    "url": "https://l.cztvcloud.com/channels/lantian/SXxiaoshan2/720p.m3u8",
    "refreshSec": 99,
    "width": 1280,
    "height": 720,
    "streamType": "hls"
  },
  {
    "id": "cn-yunhe1",
    "name": "🌄 云和 · 城市风光",
    "city": "云和",
    "country": "CN",
    "lat": 28.11,
    "lng": 119.57,
    "url": "https://l.cztvcloud.com/channels/lantian/SXyunhe1/720p.m3u8",
    "refreshSec": 99,
    "width": 1280,
    "height": 720,
    "streamType": "hls"
  },
  {
    "id": "cn-yunhe3",
    "name": "🌄 云和 · 风光3号机",
    "city": "云和",
    "country": "CN",
    "lat": 27.81,
    "lng": 119.57,
    "url": "https://l.cztvcloud.com/channels/lantian/SXyunhe3/720p.m3u8",
    "refreshSec": 99,
    "width": 1280,
    "height": 720,
    "streamType": "hls"
  },
  {
    "id": "cn-zhuji",
    "name": "🏞️ 诸暨 · 城市风光",
    "city": "诸暨",
    "country": "CN",
    "lat": 29.71,
    "lng": 120.24,
    "url": "https://l.cztvcloud.com/channels/lantian/SXzhuji3/720p.m3u8",
    "refreshSec": 99,
    "width": 1280,
    "height": 720,
    "streamType": "hls"
  },
  {
    "id": "cn-zhangjiajie",
    "name": "🏔️ 张家界 · 武陵源",
    "city": "张家界",
    "country": "CN",
    "lat": 29.12,
    "lng": 110.48,
    "url": "https://images.webcamgalore.com/10966-current-webcam-Zhangjiajie.jpg",
    "refreshSec": 15,
    "width": 1280,
    "height": 720,
    "streamType": "jpeg"
  },
  {
    "id": "cn-cctv1",
    "name": "📺 CCTV-1 综合",
    "city": "北京",
    "country": "CN",
    "lat": 39.9,
    "lng": 116.4,
    "url": "https://liveplay-srs.voc.com.cn/hls/tv/134_180adf.m3u8",
    "refreshSec": 99,
    "width": 1280,
    "height": 720,
    "streamType": "hls"
  },
  {
    "id": "cn-cctv15-1080p",
    "name": "📺 CCTV-15 音乐",
    "city": "北京",
    "country": "CN",
    "lat": 39.9,
    "lng": 116.7,
    "url": "https://xykt-fix.github.io/play/a02e/index.m3u8",
    "refreshSec": 99,
    "width": 1920,
    "height": 1080,
    "streamType": "hls"
  },
  {
    "id": "cn-cctv9",
    "name": "📺 CCTV-9 纪录",
    "city": "北京",
    "country": "CN",
    "lat": 39.9,
    "lng": 117.0,
    "url": "https://xykt-fix.github.io/Y77.m3u8",
    "refreshSec": 99,
    "width": 1920,
    "height": 1080,
    "streamType": "hls"
  },
  {
    "id": "cn-cgtn",
    "name": "🌐 CGTN 英语新闻",
    "city": "北京",
    "country": "CN",
    "lat": 39.9,
    "lng": 117.3,
    "url": "https://english-livebkali.cgtn.com/live/encgtn.m3u8",
    "refreshSec": 99,
    "width": 1920,
    "height": 1080,
    "streamType": "hls"
  },
  {
    "id": "cn-hunan",
    "name": "📺 湖南卫视",
    "city": "长沙",
    "country": "CN",
    "lat": 28.2,
    "lng": 113.0,
    "url": "https://liveplay-srs.voc.com.cn/hls/tv/135_180adf.m3u8",
    "refreshSec": 99,
    "width": 1280,
    "height": 720,
    "streamType": "hls"
  },
  {
    "id": "cn-guangzhou",
    "name": "📺 广州综合",
    "city": "广州",
    "country": "CN",
    "lat": 23.1,
    "lng": 113.3,
    "url": "https://liveplay-srs.voc.com.cn/hls/tv/138_180adf.m3u8",
    "refreshSec": 99,
    "width": 1280,
    "height": 720,
    "streamType": "hls"
  },
  {
    "id": "cn-breadtv",
    "name": "📺 面包台",
    "city": "香港",
    "country": "HK",
    "lat": 22.3,
    "lng": 114.2,
    "url": "https://video.bread-tv.com:8091/hls-live24/online/index.m3u8",
    "refreshSec": 99,
    "width": 1280,
    "height": 720,
    "streamType": "hls"
  },
  {
    "id": "cn-cndfilm",
    "name": "📺 中学生电影频道",
    "city": "北京",
    "country": "CN",
    "lat": 39.9,
    "lng": 117.6,
    "url": "http://live-play.zxstv.com.cn/zhongxuesheng/zhongxuesheng.m3u8",
    "refreshSec": 99,
    "width": 1280,
    "height": 720,
    "streamType": "hls"
  }
]