[
  {
    "id": "us-rainier",
    "name": "🏔️ 雷尼尔山 · 国家公园",
    "city": "Mount Rainier NP",
    "country": "US",
    "lat": 46.79,
    "lng": -121.74,
    "url": "https://www.nps.gov/webcams-mora/east.jpg",
    "refreshSec": 15,
    "num": 1,
    "width": 1920,
    "height": 1080
  },
  {
    "id": "us-glacier",
    "name": "🏔️ 冰川公园 · 阿普加",
    "city": "Glacier NP",
    "country": "US",
    "lat": 48.5,
    "lng": -114.02,
    "url": "https://www.nps.gov/webcams-glac/ApgarLookout-01.jpg",
    "refreshSec": 15,
    "num": 2,
    "width": 1920,
    "height": 1080
  },
  {
    "id": "us-yellowstone-east",
    "name": "🌋 黄石公园 · 东入口",
    "city": "Yellowstone NP",
    "country": "US",
    "lat": 44.35,
    "lng": -110.5,
    "url": "https://www.nps.gov/webcams-yell/east_in.jpg",
    "refreshSec": 15,
    "num": 3,
    "width": 1920,
    "height": 1080
  },
  {
    "id": "us-yellowstone-mammoth",
    "name": "🌋 黄石 · 猛犸温泉",
    "city": "Yellowstone NP",
    "country": "US",
    "lat": 44.75,
    "lng": -110.95,
    "url": "https://www.nps.gov/webcams-yell/mammoth_arch.jpg",
    "refreshSec": 15,
    "num": 4,
    "width": 1920,
    "height": 1080
  },
  {
    "id": "us-rockaway110",
    "name": "🏖️ 皇后区 · 洛克威110街",
    "city": "New York",
    "country": "US",
    "lat": 40.7,
    "lng": -73.7,
    "url": "https://camstills.cdn-surfline.com/us-east-2/ec-rockaway110th/latest_full.jpg",
    "refreshSec": 12,
    "num": 5,
    "width": 1280,
    "height": 720
  },
  {
    "id": "us-manasquan",
    "name": "🏄 马纳斯宽 · 冲浪",
    "city": "Manasquan",
    "country": "US",
    "lat": 40.0,
    "lng": -74.1,
    "url": "https://camstills.cdn-surfline.com/us-east-2/ec-manasquan/latest_full.jpg",
    "refreshSec": 12,
    "num": 6,
    "width": 1280,
    "height": 720
  },
  {
    "id": "us-hatteras",
    "name": "🏄 哈特拉斯角 · 冲浪",
    "city": "Cape Hatteras",
    "country": "US",
    "lat": 35.21,
    "lng": -75.52,
    "url": "https://camstills.cdn-surfline.com/us-east-2/ec-capehatteras2nd/latest_full.jpg",
    "refreshSec": 12,
    "num": 7,
    "width": 1280,
    "height": 720
  },
  {
    "id": "us-jacksonville",
    "name": "🌊 杰克逊维尔 · 码头",
    "city": "Jacksonville Beach",
    "country": "US",
    "lat": 30.29,
    "lng": -81.4,
    "url": "https://camstills.cdn-surfline.com/us-east-2/ec-jaxpierss/latest_full.jpg",
    "refreshSec": 12,
    "num": 8,
    "width": 1280,
    "height": 720
  },
  {
    "id": "us-newsmyrna",
    "name": "🏖️ 新士麦那 · 海滩",
    "city": "New Smyrna Beach",
    "country": "US",
    "lat": 29.03,
    "lng": -80.93,
    "url": "https://camstills.cdn-surfline.com/us-east-2/ec-newsmyrna/latest_full.jpg",
    "refreshSec": 12,
    "num": 9,
    "width": 1280,
    "height": 720
  },
  {
    "id": "us-newport",
    "name": "🏄 新港滩 · 邦亚德",
    "city": "Newport Beach",
    "country": "US",
    "lat": 33.4,
    "lng": -117.75,
    "url": "https://camstills.cdn-surfline.com/us-west-2/wc-boneyardcloseup/latest_full.jpg",
    "refreshSec": 12,
    "num": 10,
    "width": 1280,
    "height": 720
  },
  {
    "id": "us-huntington",
    "name": "🏄 亨廷顿 · 9街",
    "city": "Huntington Beach",
    "country": "US",
    "lat": 33.85,
    "lng": -118.15,
    "url": "https://camstills.cdn-surfline.com/us-west-2/wc-9thstov/latest_full.jpg",
    "refreshSec": 12,
    "num": 11,
    "width": 1280,
    "height": 720
  },
  {
    "id": "us-lajolla",
    "name": "🏖️ 拉霍亚 · 黑滩",
    "city": "La Jolla",
    "country": "US",
    "lat": 32.6,
    "lng": -117.25,
    "url": "https://camstills.cdn-surfline.com/us-west-2/wc-blacksov/latest_full.jpg",
    "refreshSec": 12,
    "num": 12,
    "width": 1280,
    "height": 720
  },
  {
    "id": "us-santacruz",
    "name": "🏄 圣克鲁兹 · 狗滩",
    "city": "Santa Cruz",
    "country": "US",
    "lat": 36.95,
    "lng": -121.97,
    "url": "https://camstills.cdn-surfline.com/us-west-2/wc-dogpatch/latest_full.jpg",
    "refreshSec": 12,
    "num": 13,
    "width": 1280,
    "height": 720
  },
  {
    "id": "us-westport",
    "name": "🌊 西港 · 太平洋",
    "city": "Westport",
    "country": "US",
    "lat": 46.89,
    "lng": -124.11,
    "url": "https://camstills.cdn-surfline.com/us-west-2/wc-westport/latest_full.jpg",
    "refreshSec": 12,
    "num": 14,
    "width": 1280,
    "height": 720
  },
  {
    "id": "us-waikiki",
    "name": "🌴 威基基 · 海滩",
    "city": "Honolulu",
    "country": "US",
    "lat": 21.3,
    "lng": -157.8,
    "url": "https://camstills.cdn-surfline.com/us-west-2/hi-waikikibeach/latest_full.jpg",
    "refreshSec": 10,
    "num": 15,
    "width": 1280,
    "height": 720
  },
  {
    "id": "us-pipeline",
    "name": "🌊 筒管浪 · 北岸",
    "city": "Haleiwa",
    "country": "US",
    "lat": 21.68,
    "lng": -158.05,
    "url": "https://camstills.cdn-surfline.com/us-west-2/hi-banzaipipeline/latest_full.jpg",
    "refreshSec": 10,
    "num": 16,
    "width": 1280,
    "height": 720
  },
  {
    "id": "us-alamoana",
    "name": "🌴 阿拉莫阿纳 · 碗浪",
    "city": "Honolulu",
    "country": "US",
    "lat": 21.28,
    "lng": -157.88,
    "url": "https://camstills.cdn-surfline.com/us-west-2/hi-alamoanabowls/latest_full.jpg",
    "refreshSec": 10,
    "num": 17,
    "width": 1280,
    "height": 720
  },
  {
    "id": "us-seattle",
    "name": "🏙️ 西雅图 · 全景",
    "city": "Seattle",
    "country": "US",
    "lat": 47.59,
    "lng": -122.33,
    "url": "https://cdn.tegna-media.com/king/weather/roofcam1.jpg",
    "refreshSec": 12,
    "num": 18,
    "width": 1920,
    "height": 1080
  },
  {
    "id": "no-arctic",
    "name": "❄️ 挪威 · 北极圈",
    "city": "Setermoen",
    "country": "NO",
    "lat": 68.86,
    "lng": 18.35,
    "url": "https://www.yr.no/webcams/1/2000/setermoen/3.jpg",
    "refreshSec": 20,
    "num": 2,
    "width": 1280,
    "height": 720
  },
  {
    "id": "fi-helsinki",
    "name": "🌲 赫尔辛基 · 首都",
    "city": "Helsinki",
    "country": "FI",
    "lat": 60.244,
    "lng": 24.948,
    "url": "https://weathercam.digitraffic.fi/C0151301.jpg",
    "refreshSec": 10,
    "num": 1,
    "width": 1280,
    "height": 720
  },
  {
    "id": "fi-turku",
    "name": "🌊 图尔库 · 海岸",
    "city": "Turku",
    "country": "FI",
    "lat": 60.5,
    "lng": 22.29,
    "url": "https://weathercam.digitraffic.fi/C0252001.jpg",
    "refreshSec": 10,
    "num": 2,
    "width": 1280,
    "height": 720
  },
  {
    "id": "au-sydney",
    "name": "🏙️ 悉尼 · 全景",
    "city": "Sydney",
    "country": "AU",
    "lat": -33.87,
    "lng": 151.21,
    "url": "https://admin.meteobridge.com/cam/9c25cda08544cf0db24b350b27d1e5f5/camplus.jpg",
    "refreshSec": 15,
    "num": 1,
    "width": 1280,
    "height": 720
  },
  {
    "id": "jp-kagoshima",
    "name": "🌋 鹿児島 · 桜島",
    "city": "Kagoshima",
    "country": "JP",
    "lat": 31.56,
    "lng": 130.56,
    "url": "https://images.webcamgalore.com/1069-current-webcam-Kagoshima.jpg",
    "refreshSec": 15,
    "num": 1,
    "width": 1920,
    "height": 1080
  },
  {
    "id": "de-ahlbeck-usedom",
    "name": "🏖️ 🇩🇪 Ahlbeck Usedom",
    "city": "Ahlbeck Usedom",
    "country": "DE",
    "lat": 53.94,
    "lng": 14.19,
    "url": "https://images.webcamgalore.com/26424-current-webcam-Ahlbeck-Usedom.jpg",
    "refreshSec": 15,
    "width": 2048,
    "height": 1536,
    "num": 1
  },
  {
    "id": "fr-abries",
    "name": "🏔️ 🇫🇷 Abries",
    "city": "Abries",
    "country": "FR",
    "lat": 44.8,
    "lng": 6.93,
    "url": "https://images.webcamgalore.com/20565-current-webcam-Abries.jpg",
    "refreshSec": 15,
    "width": 1920,
    "height": 1080,
    "num": 1
  },
  {
    "id": "fr-ajaccio-corsica",
    "name": "🏝️ 🇫🇷 Ajaccio Corsica",
    "city": "Ajaccio Corsica",
    "country": "FR",
    "lat": 41.92,
    "lng": 8.74,
    "url": "https://images.webcamgalore.com/739-current-webcam-Ajaccio-Corsica.jpg",
    "refreshSec": 15,
    "width": 3072,
    "height": 1728,
    "num": 2
  },
  {
    "id": "it-abbadia-san-salvatore",
    "name": "⛪ 🇮🇹 Abbadia San Salvatore",
    "city": "Abbadia San Salvatore",
    "country": "IT",
    "lat": 42.88,
    "lng": 11.67,
    "url": "https://images.webcamgalore.com/34324-current-webcam-Abbadia-San-Salvatore.jpg",
    "refreshSec": 15,
    "width": 1920,
    "height": 1080,
    "num": 1
  },
  {
    "id": "it-abetone",
    "name": "⛷️ 🇮🇹 Abetone",
    "city": "Abetone",
    "country": "IT",
    "lat": 44.15,
    "lng": 10.67,
    "url": "https://images.webcamgalore.com/38487-current-webcam-Abetone.jpg",
    "refreshSec": 15,
    "width": 1920,
    "height": 1080,
    "num": 2
  },
  {
    "id": "es-a-coruna",
    "name": "🌊 🇪🇸 A Coruna",
    "city": "A Coruna",
    "country": "ES",
    "lat": 43.37,
    "lng": -8.4,
    "url": "https://images.webcamgalore.com/33601-current-webcam-A-Coruna.jpg",
    "refreshSec": 15,
    "width": 1920,
    "height": 1080,
    "num": 1
  },
  {
    "id": "ru-korotetskaya",
    "name": "🌲 🇷🇺 Korotetskaya",
    "city": "Korotetskaya",
    "country": "RU",
    "lat": 60.2,
    "lng": 38.5,
    "url": "https://images.webcamgalore.com/30911-current-webcam-Korotetskaya.jpg",
    "refreshSec": 15,
    "width": 1920,
    "height": 1080,
    "num": 1
  },
  {
    "id": "ru-kingisepp",
    "name": "🏰 🇷🇺 Kingisepp",
    "city": "Kingisepp",
    "country": "RU",
    "lat": 59.37,
    "lng": 28.6,
    "url": "https://images.webcamgalore.com/30897-current-webcam-Kingisepp.jpg",
    "refreshSec": 15,
    "width": 1280,
    "height": 960,
    "num": 2
  },
  {
    "id": "pl-bialka-tatrzanska",
    "name": "🏔️ 🇵🇱 Bialka Tatrzanska",
    "city": "Bialka Tatrzanska",
    "country": "PL",
    "lat": 49.39,
    "lng": 20.1,
    "url": "https://images.webcamgalore.com/30923-current-webcam-Bialka-Tatrzanska.jpg",
    "refreshSec": 15,
    "width": 1920,
    "height": 1080,
    "num": 1
  },
  {
    "id": "pl-bydgoszcz",
    "name": "🏙️ 🇵🇱 Bydgoszcz",
    "city": "Bydgoszcz",
    "country": "PL",
    "lat": 53.12,
    "lng": 18.01,
    "url": "https://images.webcamgalore.com/2440-current-webcam-Bydgoszcz.jpg",
    "refreshSec": 15,
    "width": 1280,
    "height": 720,
    "num": 2
  },
  {
    "id": "pt-aljezur",
    "name": "🏄 🇵🇹 Aljezur",
    "city": "Aljezur",
    "country": "PT",
    "lat": 37.32,
    "lng": -8.8,
    "url": "https://images.webcamgalore.com/35872-current-webcam-Aljezur.jpg",
    "refreshSec": 15,
    "width": 1920,
    "height": 1080,
    "num": 1
  },
  {
    "id": "se-gothenburg",
    "name": "🏙️ 🇸🇪 Gothenburg",
    "city": "Gothenburg",
    "country": "SE",
    "lat": 57.71,
    "lng": 11.97,
    "url": "https://images.webcamgalore.com/2935-current-webcam-Gothenburg.jpg",
    "refreshSec": 15,
    "width": 1920,
    "height": 1080,
    "num": 1
  },
  {
    "id": "dk-fanoe",
    "name": "🏖️ 🇩🇰 Fanoe",
    "city": "Fanoe",
    "country": "DK",
    "lat": 55.41,
    "lng": 8.4,
    "url": "https://images.webcamgalore.com/33383-current-webcam-Fanoe.jpg",
    "refreshSec": 15,
    "width": 1920,
    "height": 1080,
    "num": 1
  },
  {
    "id": "hr-bale",
    "name": "🏰 🇭🇷 Bale",
    "city": "Bale",
    "country": "HR",
    "lat": 45.04,
    "lng": 13.78,
    "url": "https://images.webcamgalore.com/34360-current-webcam-Bale.jpg",
    "refreshSec": 15,
    "width": 1920,
    "height": 1080,
    "num": 1
  },
  {
    "id": "lv-daugavpils",
    "name": "🏙️ 🇱🇻 Daugavpils",
    "city": "Daugavpils",
    "country": "LV",
    "lat": 55.87,
    "lng": 26.53,
    "url": "https://images.webcamgalore.com/30866-current-webcam-Daugavpils.jpg",
    "refreshSec": 15,
    "width": 1920,
    "height": 1080,
    "num": 1
  },
  {
    "id": "lv-jurmala",
    "name": "🏖️ 🇱🇻 Jurmala",
    "city": "Jurmala",
    "country": "LV",
    "lat": 56.97,
    "lng": 23.83,
    "url": "https://images.webcamgalore.com/30858-current-webcam-Jurmala.jpg",
    "refreshSec": 15,
    "width": 1920,
    "height": 1080,
    "num": 2
  },
  {
    "id": "hu-veszprem",
    "name": "🏰 🇭🇺 Veszprem",
    "city": "Veszprem",
    "country": "HU",
    "lat": 47.09,
    "lng": 17.91,
    "url": "https://images.webcamgalore.com/38345-current-webcam-Veszprem.jpg",
    "refreshSec": 15,
    "width": 1920,
    "height": 1080,
    "num": 1
  },
  {
    "id": "ro-buzau",
    "name": "🏙️ 🇷🇴 Buzau",
    "city": "Buzau",
    "country": "RO",
    "lat": 45.15,
    "lng": 26.82,
    "url": "https://images.webcamgalore.com/38119-current-webcam-Buzau.jpg",
    "refreshSec": 15,
    "width": 1920,
    "height": 1080,
    "num": 1
  },
  {
    "id": "ro-eforie",
    "name": "🏖️ 🇷🇴 Eforie",
    "city": "Eforie",
    "country": "RO",
    "lat": 44.04,
    "lng": 28.65,
    "url": "https://images.webcamgalore.com/37992-current-webcam-Eforie.jpg",
    "refreshSec": 15,
    "width": 1920,
    "height": 1080,
    "num": 2
  },
  {
    "id": "lt-kaniukai",
    "name": "🌲 🇱🇹 Kaniukai",
    "city": "Kaniukai",
    "country": "LT",
    "lat": 54.2,
    "lng": 25.1,
    "url": "https://images.webcamgalore.com/30880-current-webcam-Kaniukai.jpg",
    "refreshSec": 15,
    "width": 1920,
    "height": 1080,
    "num": 1
  },
  {
    "id": "lt-vilnius",
    "name": "🏙️ 🇱🇹 Vilnius",
    "city": "Vilnius",
    "country": "LT",
    "lat": 54.69,
    "lng": 25.28,
    "url": "https://images.webcamgalore.com/30878-current-webcam-Vilnius.jpg",
    "refreshSec": 15,
    "width": 1920,
    "height": 1080,
    "num": 2
  },
  {
    "id": "cn-banquiao",
    "name": "🏙️ 🇨🇳 Banquiao",
    "city": "Banquiao",
    "country": "CN",
    "lat": 25.0,
    "lng": 102.7,
    "url": "https://images.webcamgalore.com/36801-current-webcam-Banquiao.jpg",
    "refreshSec": 15,
    "width": 1280,
    "height": 720,
    "num": 1
  },
  {
    "id": "cn-beijing",
    "name": "🏯 🇨🇳 Beijing",
    "city": "Beijing",
    "country": "CN",
    "lat": 39.9,
    "lng": 116.4,
    "url": "https://images.webcamgalore.com/37048-current-webcam-Beijing.jpg",
    "refreshSec": 15,
    "width": 4406,
    "height": 3264,
    "num": 2
  },
  {
    "id": "cn-chengde",
    "name": "🏔️ 🇨🇳 Chengde",
    "city": "Chengde",
    "country": "CN",
    "lat": 40.9,
    "lng": 117.9,
    "url": "https://images.webcamgalore.com/36664-current-webcam-Chengde.jpg",
    "refreshSec": 15,
    "width": 1280,
    "height": 720,
    "num": 3
  },
  {
    "id": "cn-chengdu",
    "name": "🐼 🇨🇳 Chengdu",
    "city": "Chengdu",
    "country": "CN",
    "lat": 30.6,
    "lng": 104.1,
    "url": "https://images.webcamgalore.com/34692-current-webcam-Chengdu.jpg",
    "refreshSec": 15,
    "width": 1280,
    "height": 720,
    "num": 4
  },
  {
    "id": "cn-dunhuang",
    "name": "🏜️ 🇨🇳 Dunhuang",
    "city": "Dunhuang",
    "country": "CN",
    "lat": 40.1,
    "lng": 94.7,
    "url": "https://images.webcamgalore.com/28638-current-webcam-Dunhuang.jpg",
    "refreshSec": 15,
    "width": 1280,
    "height": 720,
    "num": 5
  },
  {
    "id": "cn-fenghuang",
    "name": "🏘️ 🇨🇳 Fenghuang",
    "city": "Fenghuang",
    "country": "CN",
    "lat": 28.0,
    "lng": 109.6,
    "url": "https://images.webcamgalore.com/12195-current-webcam-Fenghuang.jpg",
    "refreshSec": 15,
    "width": 1920,
    "height": 1080,
    "num": 6
  },
  {
    "id": "cn-gubeikou",
    "name": "🏯 🇨🇳 Gubeikou",
    "city": "Gubeikou",
    "country": "CN",
    "lat": 40.6,
    "lng": 117.1,
    "url": "https://images.webcamgalore.com/34687-current-webcam-Gubeikou.jpg",
    "refreshSec": 15,
    "width": 1280,
    "height": 720,
    "num": 7
  },
  {
    "id": "id-tangkubanperahu",
    "name": "🌋 🇮🇩 Tangkuban Perahu",
    "city": "Tangkuban Perahu",
    "country": "ID",
    "lat": -6.8,
    "lng": 107.6,
    "url": "https://images.webcamgalore.com/35152-current-webcam-Tangkuban-Perahu.jpg",
    "refreshSec": 15,
    "width": 2348,
    "height": 1920,
    "num": 1
  },
  {
    "id": "mv-huvahendhooariatoll",
    "name": "🏝️ 🇲🇻 Huvahendhoo Ari Atoll",
    "city": "Huvahendhoo Ari Atoll",
    "country": "MV",
    "lat": 3.8,
    "lng": 72.8,
    "url": "https://images.webcamgalore.com/26335-current-webcam-Huvahendhoo-Ari-Atoll.jpg",
    "refreshSec": 15,
    "width": 1920,
    "height": 1080,
    "num": 1
  },
  {
    "id": "aq-halley",
    "name": "❄️ 🇦🇶 Halley Station",
    "city": "Halley Research Station",
    "country": "AQ",
    "lat": -75.57,
    "lng": -26.54,
    "url": "https://images.webcamgalore.com/26164-current-webcam-Halley-Research-Station.jpg",
    "refreshSec": 15,
    "width": 1920,
    "height": 1080,
    "num": 1
  },
  {
    "id": "re-saint-leu",
    "name": "🏝️ 🇷🇪 Saint Leu",
    "city": "Saint Leu",
    "country": "RE",
    "lat": -21.17,
    "lng": 55.29,
    "url": "https://images.webcamgalore.com/35234-current-webcam-Saint-Leu.jpg",
    "refreshSec": 15,
    "width": 4926,
    "height": 2463,
    "num": 1
  },
  {
    "id": "in-bir",
    "name": "🏔️ 🇮🇳 Bir · 喜马拉雅",
    "city": "Bir",
    "country": "IN",
    "lat": 32.05,
    "lng": 76.7,
    "url": "https://images.webcamgalore.com/36433-current-webcam-Bir.jpg",
    "refreshSec": 15,
    "width": 1280,
    "height": 720,
    "num": 1
  },
  {
    "id": "in-tiruvannamalai",
    "name": "🛕 🇮🇳 Tiruvannamalai · 圣山",
    "city": "Tiruvannamalai",
    "country": "IN",
    "lat": 12.23,
    "lng": 79.07,
    "url": "https://images.webcamgalore.com/2850-current-webcam-Tiruvannamalai.jpg",
    "refreshSec": 15,
    "width": 1920,
    "height": 1080,
    "num": 2
  },
  {
    "id": "au-alice-springs",
    "name": "🏜️ 🇦🇺 Alice Springs · 红土中心",
    "city": "Alice Springs",
    "country": "AU",
    "lat": -23.7,
    "lng": 133.88,
    "url": "https://images.webcamgalore.com/36960-current-webcam-Alice-Springs.jpg",
    "refreshSec": 15,
    "width": 1920,
    "height": 1080,
    "num": 2
  },
  {
    "id": "au-cairns",
    "name": "🐠 🇦🇺 Cairns · 大堡礁",
    "city": "Cairns",
    "country": "AU",
    "lat": -16.92,
    "lng": 145.77,
    "url": "https://images.webcamgalore.com/36970-current-webcam-Cairns.jpg",
    "refreshSec": 15,
    "width": 1280,
    "height": 720,
    "num": 3
  },
  {
    "id": "au-hamilton-island",
    "name": "🏝️ 🇦🇺 Hamilton Island · 圣灵群岛",
    "city": "Hamilton Island",
    "country": "AU",
    "lat": -20.35,
    "lng": 148.96,
    "url": "https://images.webcamgalore.com/36966-current-webcam-Hamilton-Island.jpg",
    "refreshSec": 15,
    "width": 1280,
    "height": 720,
    "num": 4
  },
  {
    "id": "au-hobart",
    "name": "🏙️ 🇦🇺 Hobart · 塔斯马尼亚",
    "city": "Hobart",
    "country": "AU",
    "lat": -42.88,
    "lng": 147.33,
    "url": "https://images.webcamgalore.com/36967-current-webcam-Hobart.jpg",
    "refreshSec": 15,
    "width": 1280,
    "height": 720,
    "num": 5
  },
  {
    "id": "au-darwin",
    "name": "🌴 🇦🇺 Darwin · 北领地",
    "city": "Darwin",
    "country": "AU",
    "lat": -12.46,
    "lng": 130.84,
    "url": "https://images.webcamgalore.com/34255-current-webcam-Darwin.jpg",
    "refreshSec": 15,
    "width": 3840,
    "height": 2160,
    "num": 6
  },
  {
    "id": "au-christmas-island",
    "name": "🦀 🇦🇺 Christmas Island",
    "city": "Christmas Island",
    "country": "AU",
    "lat": -10.49,
    "lng": 105.63,
    "url": "https://images.webcamgalore.com/36964-current-webcam-Christmas-Island.jpg",
    "refreshSec": 15,
    "width": 1280,
    "height": 720,
    "num": 7
  },
  {
    "id": "au-norfolk-island",
    "name": "🌴 🇦🇺 Norfolk Island · 太平洋",
    "city": "Burnt Pine",
    "country": "AU",
    "lat": -29.03,
    "lng": 167.95,
    "url": "https://images.webcamgalore.com/36972-current-webcam-Burnt-Pine-Norfolk-Island.jpg",
    "refreshSec": 15,
    "width": 1280,
    "height": 720,
    "num": 8
  },
  {
    "id": "au-carrum",
    "name": "🏖️ 🇦🇺 Carrum · 墨尔本海滩",
    "city": "Carrum",
    "country": "AU",
    "lat": -38.08,
    "lng": 145.12,
    "url": "https://images.webcamgalore.com/35188-current-webcam-Carrum.jpg",
    "refreshSec": 15,
    "width": 2560,
    "height": 1440,
    "num": 9
  },
  {
    "id": "au-jabiru",
    "name": "🐊 🇦🇺 Jabiru · 卡卡杜",
    "city": "Jabiru",
    "country": "AU",
    "lat": -12.67,
    "lng": 132.83,
    "url": "https://images.webcamgalore.com/36961-current-webcam-Jabiru.jpg",
    "refreshSec": 15,
    "width": 1920,
    "height": 1080,
    "num": 10
  },
  {
    "id": "au-eton",
    "name": "🌾 🇦🇺 Eton · 昆士兰",
    "city": "Eton",
    "country": "AU",
    "lat": -21.27,
    "lng": 148.97,
    "url": "https://images.webcamgalore.com/21589-current-webcam-Eton.jpg",
    "refreshSec": 15,
    "width": 1920,
    "height": 1080,
    "num": 11
  },
  {
    "id": "nz-lake-pukaki",
    "name": "🏔️ 🇳🇿 Lake Pukaki · 库克山",
    "city": "Lake Pukaki",
    "country": "NZ",
    "lat": -44.0,
    "lng": 170.1,
    "url": "https://images.webcamgalore.com/36365-current-webcam-Lake-Pukaki.jpg",
    "refreshSec": 15,
    "width": 1920,
    "height": 1080,
    "num": 1
  },
  {
    "id": "nz-dunedin",
    "name": "🏙️ 🇳🇿 Dunedin · 南岛",
    "city": "Dunedin",
    "country": "NZ",
    "lat": -45.87,
    "lng": 170.5,
    "url": "https://images.webcamgalore.com/21877-current-webcam-Dunedin.jpg",
    "refreshSec": 15,
    "width": 1280,
    "height": 720,
    "num": 2
  },
  {
    "id": "nz-auckland",
    "name": "🏙️ 🇳🇿 Auckland · 帆船之都",
    "city": "Auckland",
    "country": "NZ",
    "lat": -36.85,
    "lng": 174.76,
    "url": "https://images.webcamgalore.com/38598-current-webcam-Auckland.jpg",
    "refreshSec": 15,
    "width": 1280,
    "height": 720,
    "num": 3
  },
  {
    "id": "is-akranes2",
    "name": "❄️ 🇮🇸 Akranes · 冰岛西岸",
    "city": "Akranes",
    "country": "IS",
    "lat": 64.32,
    "lng": -22.07,
    "url": "https://images.webcamgalore.com/32771-current-webcam-Akranes.jpg",
    "refreshSec": 15,
    "width": 3072,
    "height": 1728,
    "num": 1
  },
  {
    "id": "is-akureyri2",
    "name": "❄️ 🇮🇸 Akureyri · 北部首都",
    "city": "Akureyri",
    "country": "IS",
    "lat": 65.68,
    "lng": -18.09,
    "url": "https://images.webcamgalore.com/23253-current-webcam-Akureyri.jpg",
    "refreshSec": 15,
    "width": 1920,
    "height": 1080,
    "num": 2
  },
  {
    "id": "aq-south-pole",
    "name": "🧊 🇦🇶 South Pole · 南极极点",
    "city": "South Pole",
    "country": "AQ",
    "lat": -89.5,
    "lng": 45.0,
    "url": "https://images.webcamgalore.com/26625-current-webcam-South-Pole.jpg",
    "refreshSec": 15,
    "width": 1280,
    "height": 960,
    "num": 2
  },
  {
    "id": "aq-troll",
    "name": "🧊 🇦🇶 Troll Station · 挪威科考站",
    "city": "Troll Station",
    "country": "AQ",
    "lat": -72.02,
    "lng": 2.55,
    "url": "https://images.webcamgalore.com/21962-current-webcam-Troll-Station.jpg",
    "refreshSec": 15,
    "width": 1920,
    "height": 1080,
    "num": 3
  },
  {
    "id": "gl-freya-glacier",
    "name": "🧊 🇬🇱 Freya Glacier · 格陵兰",
    "city": "Freya Glacier",
    "country": "GL",
    "lat": 74.38,
    "lng": -20.84,
    "url": "https://images.webcamgalore.com/28893-current-webcam-Freya-Glacier.jpg",
    "refreshSec": 15,
    "width": 1920,
    "height": 1080,
    "num": 1
  },
  {
    "id": "gl-ilulissat",
    "name": "🧊 🇬🇱 Ilulissat · 冰峡湾",
    "city": "Ilulissat",
    "country": "GL",
    "lat": 69.22,
    "lng": -51.1,
    "url": "https://images.webcamgalore.com/18633-current-webcam-Ilulissat.jpg",
    "refreshSec": 15,
    "width": 1280,
    "height": 720,
    "num": 2
  },
  {
    "id": "gl-kangerlussuaq",
    "name": "🧊 🇬🇱 Kangerlussuaq · 北极圈",
    "city": "Kangerlussuaq",
    "country": "GL",
    "lat": 67.01,
    "lng": -50.69,
    "url": "https://images.webcamgalore.com/35846-current-webcam-Kangerlussuaq.jpg",
    "refreshSec": 15,
    "width": 1280,
    "height": 720,
    "num": 3
  },
  {
    "id": "gl-kulusuk",
    "name": "🧊 🇬🇱 Kulusuk · 东格陵兰",
    "city": "Kulusuk",
    "country": "GL",
    "lat": 65.57,
    "lng": -37.18,
    "url": "https://images.webcamgalore.com/36049-current-webcam-Kulusuk.jpg",
    "refreshSec": 15,
    "width": 1280,
    "height": 720,
    "num": 4
  },
  {
    "id": "pa-panama-canal",
    "name": "🚢 🇵🇦 Panama Canal",
    "city": "Panama Canal",
    "country": "PA",
    "lat": 9.0,
    "lng": -79.6,
    "url": "https://images.webcamgalore.com/34989-current-webcam-Panama-Canal.jpg",
    "refreshSec": 15,
    "width": 1280,
    "height": 720,
    "num": 1
  },
  {
    "id": "gt-guatemala-city",
    "name": "🏙️ 🇬🇹 Guatemala City",
    "city": "Guatemala City",
    "country": "GT",
    "lat": 14.63,
    "lng": -90.51,
    "url": "https://images.webcamgalore.com/35118-current-webcam-Guatemala-City.jpg",
    "refreshSec": 15,
    "width": 1920,
    "height": 1080,
    "num": 1
  },
  {
    "id": "cn-victoria-peak2",
    "name": "🏙️ 🇭🇰 太平山 · 北望维港",
    "city": "Victoria Peak",
    "country": "HK",
    "lat": 22.1,
    "lng": 115.3,
    "url": "https://images.webcamgalore.com/34864-current-webcam-Hong-Kong.jpg",
    "refreshSec": 15,
    "width": 1920,
    "height": 1080,
    "num": 1
  },
  {
    "id": "cn-icc-se",
    "name": "🏙️ 🇭🇰 ICC · 东南俯瞰",
    "city": "ICC",
    "country": "HK",
    "lat": 21.8,
    "lng": 115.3,
    "url": "https://images.webcamgalore.com/34865-current-webcam-Hong-Kong.jpg",
    "refreshSec": 15,
    "width": 1920,
    "height": 1080,
    "num": 2
  },
  {
    "id": "cn-victoria-harbour",
    "name": "🌊 🇭🇰 维多利亚港",
    "city": "Victoria Harbour",
    "country": "HK",
    "lat": 22.4,
    "lng": 115.3,
    "url": "https://images.webcamgalore.com/34866-current-webcam-Hong-Kong.jpg",
    "refreshSec": 15,
    "width": 1920,
    "height": 1080,
    "num": 3
  },
  {
    "id": "cn-icc-sw",
    "name": "🏙️ 🇭🇰 ICC · 西南方向",
    "city": "ICC SW",
    "country": "HK",
    "lat": 21.5,
    "lng": 115.3,
    "url": "https://images.webcamgalore.com/34867-current-webcam-Hong-Kong.jpg",
    "refreshSec": 15,
    "width": 1920,
    "height": 1080,
    "num": 4
  },
  {
    "id": "cn-tsimshatsui",
    "name": "🏙️ 🇭🇰 尖沙咀 · 维港",
    "city": "Tsim Sha Tsui",
    "country": "HK",
    "lat": 21.2,
    "lng": 115.3,
    "url": "https://images.webcamgalore.com/34868-current-webcam-Hong-Kong.jpg",
    "refreshSec": 15,
    "width": 1280,
    "height": 720,
    "num": 5
  },
  {
    "id": "cn-cheungchau",
    "name": "🏝️ 🇭🇰 长洲岛",
    "city": "Cheung Chau",
    "country": "HK",
    "lat": 20.6,
    "lng": 115.3,
    "url": "https://images.webcamgalore.com/34870-current-webcam-Hong-Kong.jpg",
    "refreshSec": 15,
    "width": 1280,
    "height": 720,
    "num": 6
  },
  {
    "id": "cn-kowloon-city",
    "name": "🏙️ 🇭🇰 九龙城 · 东眺",
    "city": "Kowloon City",
    "country": "HK",
    "lat": 20.9,
    "lng": 115.3,
    "url": "https://images.webcamgalore.com/34871-current-webcam-Hong-Kong.jpg",
    "refreshSec": 15,
    "width": 1280,
    "height": 720,
    "num": 7
  },
  {
    "id": "cn-pengchau",
    "name": "🏝️ 🇭🇰 坪洲岛",
    "city": "Peng Chau",
    "country": "HK",
    "lat": 20.3,
    "lng": 115.3,
    "url": "https://images.webcamgalore.com/34872-current-webcam-Hong-Kong.jpg",
    "refreshSec": 15,
    "width": 1280,
    "height": 720,
    "num": 8
  },
  {
    "id": "cn-taipokau",
    "name": "🌿 🇭🇰 大埔滘 · 东北",
    "city": "Tai Po Kau",
    "country": "HK",
    "lat": 20.0,
    "lng": 115.3,
    "url": "https://images.webcamgalore.com/34873-current-webcam-Hong-Kong.jpg",
    "refreshSec": 15,
    "width": 1280,
    "height": 720,
    "num": 9
  },
  {
    "id": "cn-hk-airport",
    "name": "✈️ 🇭🇰 香港机场",
    "city": "HK Airport",
    "country": "HK",
    "lat": 19.7,
    "lng": 115.3,
    "url": "https://images.webcamgalore.com/34879-current-webcam-Hong-Kong.jpg",
    "refreshSec": 15,
    "width": 1280,
    "height": 720,
    "num": 10
  },
  {
    "id": "cn-kadoorie",
    "name": "🌿 🇭🇰 嘉道理农场",
    "city": "Kadoorie Farm",
    "country": "HK",
    "lat": 19.4,
    "lng": 115.3,
    "url": "https://images.webcamgalore.com/34880-current-webcam-Hong-Kong.jpg",
    "refreshSec": 15,
    "width": 1920,
    "height": 1080,
    "num": 11
  },
  {
    "id": "cn-sheungshui",
    "name": "🏫 🇭🇰 上水 · 西北",
    "city": "Sheung Shui",
    "country": "HK",
    "lat": 19.1,
    "lng": 115.3,
    "url": "https://images.webcamgalore.com/34881-current-webcam-Hong-Kong.jpg",
    "refreshSec": 15,
    "width": 1280,
    "height": 720,
    "num": 12
  },
  {
    "id": "cn-wetland",
    "name": "🦆 🇭🇰 湿地公园",
    "city": "Wetland Park",
    "country": "HK",
    "lat": 18.8,
    "lng": 115.3,
    "url": "https://images.webcamgalore.com/34882-current-webcam-Hong-Kong.jpg",
    "refreshSec": 15,
    "width": 1280,
    "height": 720,
    "num": 13
  },
  {
    "id": "cn-laufaushan",
    "name": "🌅 🇭🇰 流浮山 · 日落",
    "city": "Lau Fau Shan",
    "country": "HK",
    "lat": 18.5,
    "lng": 115.3,
    "url": "https://images.webcamgalore.com/34883-current-webcam-Hong-Kong.jpg",
    "refreshSec": 15,
    "width": 1280,
    "height": 720,
    "num": 14
  },
  {
    "id": "cn-saiwanho",
    "name": "🌊 🇭🇰 西湾河 · 东望",
    "city": "Sai Wan Ho",
    "country": "HK",
    "lat": 18.2,
    "lng": 115.3,
    "url": "https://images.webcamgalore.com/34884-current-webcam-Hong-Kong.jpg",
    "refreshSec": 15,
    "width": 1280,
    "height": 720,
    "num": 15
  },
  {
    "id": "cn-clearbay",
    "name": "🏖️ 🇭🇰 清水湾 · 东南",
    "city": "Clear Water Bay",
    "country": "HK",
    "lat": 17.9,
    "lng": 115.3,
    "url": "https://images.webcamgalore.com/34885-current-webcam-Hong-Kong.jpg",
    "refreshSec": 15,
    "width": 1280,
    "height": 720,
    "num": 16
  },
  {
    "id": "cn-saikung",
    "name": "⛵ 🇭🇰 西贡 · 东南",
    "city": "Sai Kung",
    "country": "HK",
    "lat": 17.6,
    "lng": 115.3,
    "url": "https://images.webcamgalore.com/34886-current-webcam-Hong-Kong.jpg",
    "refreshSec": 15,
    "width": 1920,
    "height": 1080,
    "num": 17
  },
  {
    "id": "tw-dali",
    "name": "📺 大立電視台",
    "city": "高雄",
    "country": "TW",
    "lat": 22.63,
    "lng": 120.3,
    "url": "http://www.dalitv.com.tw:4568/live/dali/index.m3u8",
    "streamType": "hls",
    "refreshSec": 15,
    "width": 1280,
    "height": 720,
    "num": 1
  },
  {
    "id": "tw-bltv",
    "name": "📡 CGNTV 中文台",
    "city": "台北",
    "country": "TW",
    "lat": 24.13,
    "lng": 120.68,
    "url": "https://d3e05csss9c272.cloudfront.net/out/v1/f0bf71c57581470fb9379f603e8f5d83/CGNWebLiveCN.m3u8",
    "streamType": "hls",
    "refreshSec": 15,
    "width": 1920,
    "height": 1080,
    "num": 2
  },
  {
    "id": "jp-nhkworld",
    "name": "📡 NHK World Japan",
    "city": "東京",
    "country": "JP",
    "lat": 36.2,
    "lng": 140.3,
    "url": "https://masterpl.hls.nhkworld.jp/hls/w/live/smarttv.m3u8",
    "streamType": "hls",
    "refreshSec": 15,
    "width": 1920,
    "height": 1080,
    "num": 1
  },
  {
    "id": "tw-taipei101",
    "name": "🏙️ 台北101 · 天际线",
    "city": "台北",
    "country": "TW",
    "lat": 25.03,
    "lng": 121.8,
    "url": "https://images.webcamgalore.com/35306-current-webcam-Taipei.jpg",
    "streamType": "jpeg",
    "refreshSec": 15,
    "width": 1280,
    "height": 720,
    "num": 1
  },
  {
    "id": "au-tbnpacific",
    "name": "📡 TBN 太平洋",
    "city": "布里斯班",
    "country": "AU",
    "lat": -27.47,
    "lng": 153.03,
    "url": "https://broadcast.tbnpacific.org.au:4430/stream/TBNPacificTV/playlist.m3u8",
    "streamType": "hls",
    "refreshSec": 15,
    "width": 1920,
    "height": 1080,
    "num": 1
  },
  {
    "id": "za-capetown",
    "name": "🏙️ 开普敦 · 桌山全景",
    "city": "开普敦",
    "country": "ZA",
    "lat": -33.92,
    "lng": 18.42,
    "url": "https://images.webcamgalore.com/36824-current-webcam-South-Africa.jpg",
    "streamType": "jpeg",
    "refreshSec": 15,
    "width": 1920,
    "height": 1080,
    "num": 1
  },
  {
    "id": "za-durban",
    "name": "🌊 德班 · 印度洋海岸",
    "city": "德班",
    "country": "ZA",
    "lat": -29.86,
    "lng": 31.03,
    "url": "https://images.webcamgalore.com/36825-current-webcam-South-Africa.jpg",
    "streamType": "jpeg",
    "refreshSec": 15,
    "width": 3840,
    "height": 2160,
    "num": 2
  },
  {
    "id": "au-abcnews",
    "name": "📡 ABC News · 澳大利亚",
    "city": "Sydney",
    "country": "AU",
    "lat": -33.9,
    "lng": 151.2,
    "url": "https://abc-news-dmd-streams-1.akamaized.net/out/v1/701126012d044971b3fa89406a440133/index.m3u8",
    "streamType": "hls",
    "refreshSec": 15,
    "width": 1280,
    "height": 720,
    "num": 2
  },
  {
    "id": "tr-trtworld",
    "name": "📡 TRT World · 土耳其",
    "city": "Istanbul",
    "country": "TR",
    "lat": 41.0,
    "lng": 29.0,
    "url": "https://tv-trtworld.medya.trt.com.tr/master.m3u8",
    "streamType": "hls",
    "refreshSec": 15,
    "width": 1920,
    "height": 1080,
    "num": 1
  },
  {
    "id": "tr-trthaber",
    "name": "📡 TRT Haber · 土耳其",
    "city": "Ankara",
    "country": "TR",
    "lat": 39.9,
    "lng": 32.9,
    "url": "https://tv-trthaber.medya.trt.com.tr/master.m3u8",
    "streamType": "hls",
    "refreshSec": 15,
    "width": 1280,
    "height": 720,
    "num": 2
  },
  {
    "id": "mx-cancun",
    "name": "🏖️ 坎昆 · 加勒比海滩",
    "city": "Cancun",
    "country": "MX",
    "lat": 21.16,
    "lng": -86.85,
    "url": "https://images.webcamgalore.com/35000-current-webcam-Cancun.jpg",
    "refreshSec": 15,
    "width": 1280,
    "height": 720
  },
  {
    "id": "at-innsbruck",
    "name": "🏔️ 因斯布鲁克 · 阿尔卑斯",
    "city": "Innsbruck",
    "country": "AT",
    "lat": 47.27,
    "lng": 11.4,
    "url": "https://images.webcamgalore.com/38400-current-webcam-Innsbruck.jpg",
    "refreshSec": 15,
    "width": 1920,
    "height": 1080
  },
  {
    "id": "at-salzburg",
    "name": "🏰 萨尔茨堡 · 莫扎特之城",
    "city": "Salzburg",
    "country": "AT",
    "lat": 47.81,
    "lng": 13.04,
    "url": "https://images.webcamgalore.com/38450-current-webcam-Salzburg.jpg",
    "refreshSec": 15,
    "width": 1280,
    "height": 720
  },
  {
    "id": "cz-prague",
    "name": "🏰 布拉格 · 查理大桥",
    "city": "Prague",
    "country": "CZ",
    "lat": 50.09,
    "lng": 14.42,
    "url": "https://images.webcamgalore.com/33000-current-webcam-Prague.jpg",
    "refreshSec": 15,
    "width": 1920,
    "height": 1080
  },
  {
    "id": "be-antwerp",
    "name": "💎 安特卫普 · 钻石之都",
    "city": "Antwerp",
    "country": "BE",
    "lat": 51.22,
    "lng": 4.4,
    "url": "https://images.webcamgalore.com/33200-current-webcam-Antwerp.jpg",
    "refreshSec": 15,
    "width": 1920,
    "height": 1080
  },
  {
    "id": "th-bangkok",
    "name": "🏙️ 曼谷 · 都市天际线",
    "city": "Bangkok",
    "country": "TH",
    "lat": 13.75,
    "lng": 100.5,
    "url": "https://images.webcamgalore.com/37005-current-webcam-Bangkok.jpg",
    "refreshSec": 15,
    "width": 1920,
    "height": 1080
  },
  {
    "id": "th-phuket",
    "name": "🏖️ 普吉岛 · 安达曼海",
    "city": "Phuket",
    "country": "TH",
    "lat": 7.88,
    "lng": 98.4,
    "url": "https://images.webcamgalore.com/37020-current-webcam-Phuket.jpg",
    "refreshSec": 15,
    "width": 1920,
    "height": 1080
  },
  {
    "id": "th-chiang-mai",
    "name": "🏯 清迈 · 古城寺庙",
    "city": "Chiang Mai",
    "country": "TH",
    "lat": 18.79,
    "lng": 98.99,
    "url": "https://images.webcamgalore.com/37050-current-webcam-Chiang-Mai.jpg",
    "refreshSec": 15,
    "width": 1920,
    "height": 1080
  },
  {
    "id": "gb-london",
    "name": "🏙️ 伦敦 · 泰晤士河",
    "city": "London",
    "country": "GB",
    "lat": 51.51,
    "lng": -0.13,
    "url": "https://images.webcamgalore.com/2930-current-webcam-London.jpg",
    "refreshSec": 15,
    "width": 1920,
    "height": 1080
  },
  {
    "id": "gb-edinburgh",
    "name": "🏰 爱丁堡 · 古城堡",
    "city": "Edinburgh",
    "country": "GB",
    "lat": 55.95,
    "lng": -3.19,
    "url": "https://images.webcamgalore.com/2900-current-webcam-Edinburgh.jpg",
    "refreshSec": 15,
    "width": 1280,
    "height": 960
  },
  {
    "id": "gr-santorini",
    "name": "🏝️ 圣托里尼 · 爱琴海日落",
    "city": "Santorini",
    "country": "GR",
    "lat": 36.39,
    "lng": 25.46,
    "url": "https://images.webcamgalore.com/35540-current-webcam-Santorini.jpg",
    "refreshSec": 15,
    "width": 1280,
    "height": 720
  },
  {
    "id": "ie-dublin",
    "name": "🍀 都柏林 · 利菲河",
    "city": "Dublin",
    "country": "IE",
    "lat": 53.35,
    "lng": -6.26,
    "url": "https://images.webcamgalore.com/35900-current-webcam-Dublin.jpg",
    "refreshSec": 15,
    "width": 1920,
    "height": 1080
  },
  {
    "id": "br-rio",
    "name": "🏖️ 里约热内卢 · 科帕卡巴纳",
    "city": "Rio de Janeiro",
    "country": "BR",
    "lat": -22.97,
    "lng": -43.18,
    "url": "https://images.webcamgalore.com/38629-current-webcam-Rio-de-Janeiro.jpg",
    "refreshSec": 15,
    "width": 1280,
    "height": 720
  },
  {
    "id": "ca-ottawa",
    "name": "🏛️ 渥太华 · 国会山",
    "city": "Ottawa",
    "country": "CA",
    "lat": 45.42,
    "lng": -75.69,
    "url": "https://images.webcamgalore.com/117-current-webcam-Ottawa.jpg",
    "refreshSec": 15,
    "width": 1920,
    "height": 1080
  },
  {
    "id": "ca-vanderhoof",
    "name": "🌲 范德胡夫 · 北卑诗",
    "city": "Vanderhoof",
    "country": "CA",
    "lat": 54.02,
    "lng": -124.01,
    "url": "https://images.webcamgalore.com/29123-current-webcam-Vanderhoof.jpg",
    "refreshSec": 15,
    "width": 1280,
    "height": 720
  },
  {
    "id": "ca-prince-rupert",
    "name": "🌊 鲁珀特王子港 · 太平洋",
    "city": "Prince Rupert",
    "country": "CA",
    "lat": 54.31,
    "lng": -130.32,
    "url": "https://images.webcamgalore.com/20949-current-webcam-Prince-Rupert.jpg",
    "refreshSec": 15,
    "width": 800,
    "height": 600
  },
  {
    "id": "ca-port-alberni",
    "name": "🏔️ 艾伯尼港 · 温哥华岛",
    "city": "Port Alberni",
    "country": "CA",
    "lat": 49.23,
    "lng": -124.8,
    "url": "https://images.webcamgalore.com/20939-current-webcam-Port-Alberni.jpg",
    "refreshSec": 15,
    "width": 800,
    "height": 600
  },
  {
    "id": "ca-bella-bella",
    "name": "⛵ 贝拉贝拉 · 内湾航道",
    "city": "Bella Bella",
    "country": "CA",
    "lat": 52.16,
    "lng": -128.14,
    "url": "https://images.webcamgalore.com/20921-current-webcam-Bella-Bella.jpg",
    "refreshSec": 15,
    "width": 800,
    "height": 600
  },
  {
    "id": "ca-ucluelet",
    "name": "🌊 尤克卢利特 · 冲浪",
    "city": "Ucluelet",
    "country": "CA",
    "lat": 48.94,
    "lng": -125.55,
    "url": "https://images.webcamgalore.com/20918-current-webcam-Ucluelet.jpg",
    "refreshSec": 15,
    "width": 800,
    "height": 600
  },
  {
    "id": "ca-anahim-lake",
    "name": "🏔️ 阿纳希姆湖 · 高原",
    "city": "Anahim Lake",
    "country": "CA",
    "lat": 52.47,
    "lng": -125.32,
    "url": "https://images.webcamgalore.com/20919-current-webcam-Anahim-Lake.jpg",
    "refreshSec": 15,
    "width": 800,
    "height": 600
  },
  {
    "id": "ca-burns-lake",
    "name": "❄️ 伯恩斯湖 · 北卑诗",
    "city": "Burns Lake",
    "country": "CA",
    "lat": 54.23,
    "lng": -125.76,
    "url": "https://images.webcamgalore.com/20922-current-webcam-Burns-Lake.jpg",
    "refreshSec": 15,
    "width": 800,
    "height": 600
  },
  {
    "id": "ca-addenbroke",
    "name": "🌊 阿登布鲁克岛 · 灯站",
    "city": "Addenbroke Island",
    "country": "CA",
    "lat": 51.6,
    "lng": -127.86,
    "url": "https://images.webcamgalore.com/20917-current-webcam-Addenbroke-Island.jpg",
    "refreshSec": 15,
    "width": 800,
    "height": 600
  },
  {
    "id": "ca-atlin",
    "name": "❄️ 阿特林 · 育空边境",
    "city": "Atlin",
    "country": "CA",
    "lat": 59.58,
    "lng": -133.72,
    "url": "https://images.webcamgalore.com/20920-current-webcam-Atlin.jpg",
    "refreshSec": 15,
    "width": 800,
    "height": 600
  },
  {
    "id": "ca-coleman",
    "name": "🏔️ 科尔曼 · 落基山隘",
    "city": "Coleman",
    "country": "CA",
    "lat": 49.64,
    "lng": -114.5,
    "url": "https://images.webcamgalore.com/20905-current-webcam-Coleman.jpg",
    "refreshSec": 15,
    "width": 800,
    "height": 600
  },
  {
    "id": "ca-gore-bay",
    "name": "🌊 戈尔湾 · 休伦湖",
    "city": "Gore Bay",
    "country": "CA",
    "lat": 45.92,
    "lng": -82.47,
    "url": "https://images.webcamgalore.com/20868-current-webcam-Gore-Bay.jpg",
    "refreshSec": 15,
    "width": 800,
    "height": 600
  },
  {
    "id": "ca-arnprior",
    "name": "🍁 安普赖尔 · 渥太华谷",
    "city": "Arnprior",
    "country": "CA",
    "lat": 45.43,
    "lng": -76.36,
    "url": "https://images.webcamgalore.com/20888-current-webcam-Arnprior.jpg",
    "refreshSec": 15,
    "width": 800,
    "height": 600
  },
  {
    "id": "ca-attawapiskat",
    "name": "❄️ 阿塔瓦皮斯基特 · 詹姆斯湾",
    "city": "Attawapiskat",
    "country": "CA",
    "lat": 52.93,
    "lng": -82.43,
    "url": "https://images.webcamgalore.com/20887-current-webcam-Attawapiskat.jpg",
    "refreshSec": 15,
    "width": 800,
    "height": 600
  },
  {
    "id": "ca-sherbrooke",
    "name": "🏰 舍布鲁克 · 东部城镇",
    "city": "Sherbrooke",
    "country": "CA",
    "lat": 45.4,
    "lng": -71.89,
    "url": "https://images.webcamgalore.com/20853-current-webcam-Sherbrooke.jpg",
    "refreshSec": 15,
    "width": 800,
    "height": 600
  },
  {
    "id": "ca-halifax",
    "name": "⚓ 哈利法克斯 · 大西洋",
    "city": "Halifax",
    "country": "CA",
    "lat": 44.65,
    "lng": -63.57,
    "url": "https://images.webcamgalore.com/20868-current-webcam-Halifax.jpg",
    "refreshSec": 15,
    "width": 800,
    "height": 600
  },
  {
    "id": "ca-vernon",
    "name": "🍇 弗农 · 欧肯纳根谷",
    "city": "Vernon",
    "country": "CA",
    "lat": 50.27,
    "lng": -119.27,
    "url": "https://images.webcamgalore.com/21047-current-webcam-Vernon.jpg",
    "refreshSec": 15,
    "width": 800,
    "height": 600
  },
  {
    "id": "ru-360news",
    "name": "📡 360° Новости · 俄罗斯",
    "city": "莫斯科",
    "country": "RU",
    "lat": 55.75,
    "lng": 37.62,
    "url": "https://live-vgtrksmotrim.cdnvideo.ru/vgtrksmotrim/smotrim-live-03-srt.smil/playlist.m3u8",
    "refreshSec": 0,
    "num": 18,
    "width": 1920,
    "height": 1080,
    "streamType": "hls",
    "live": true
  },
  {
    "id": "qa-alaraby",
    "name": "📡 Al Araby TV · 阿拉伯",
    "city": "多哈",
    "country": "QA",
    "lat": 25.29,
    "lng": 51.53,
    "url": "https://live.kwikmotion.com/alaraby1live/alaraby_abr/playlist.m3u8",
    "refreshSec": 0,
    "num": 18,
    "width": 1920,
    "height": 1080,
    "streamType": "hls",
    "live": true
  },
  {
    "id": "us-tubi-abc9",
    "name": "📺 ABC 9 曼彻斯特 · Tubi",
    "city": "曼彻斯特",
    "country": "US",
    "lat": 42.99,
    "lng": -71.46,
    "url": "https://aegis-cloudfront-1.tubi.video/b77ffe96-c5d1-43a7-8687-306ff244d725/playlist.m3u8",
    "refreshSec": 0,
    "num": 18,
    "width": 1280,
    "height": 720,
    "streamType": "hls",
    "live": true
  },
  {
    "id": "cn-shangyu",
    "name": "🏙️ 上虞 · 城市风光",
    "city": "绍兴",
    "country": "CN",
    "lat": 30.03,
    "lng": 120.87,
    "url": "https://l.cztvcloud.com/channels/lantian/SXshangyu1/720p.m3u8",
    "width": 1280,
    "height": 720,
    "streamType": "hls",
    "refreshSec": 0,
    "num": 18,
    "live": true
  },
  {
    "id": "kr-cjb",
    "name": "📺 CJB TV",
    "city": "清州",
    "country": "KR",
    "lat": 36.64,
    "lng": 127.49,
    "url": "http://1.222.207.80:1935/live/cjbtv/playlist.m3u8",
    "width": 1280,
    "height": 720,
    "streamType": "hls",
    "refreshSec": 0,
    "num": 18,
    "live": true
  },
  {
    "id": "ke-africa24en",
    "name": "📡 Africa 24 English",
    "city": "内罗毕",
    "country": "KE",
    "lat": -1.29,
    "lng": 36.82,
    "url": "https://edge20.vedge.infomaniak.com/livecast/ik:africa24english/manifest.m3u8",
    "width": 1920,
    "height": 1080,
    "streamType": "hls",
    "refreshSec": 0,
    "num": 18,
    "live": true
  },
  {
    "id": "pt-kmusic",
    "name": "🎵 KMusic · 葡萄牙",
    "city": "里斯本",
    "country": "PT",
    "lat": 38.72,
    "lng": -9.14,
    "url": "http://195.23.211.179:1935/kmusic/smil:kmusic.smil/playlist.m3u8",
    "width": 1280,
    "height": 720,
    "streamType": "hls",
    "refreshSec": 0,
    "num": 18,
    "live": true
  },
  {
    "id": "sa-alarabiya",
    "name": "📡 Al Arabiya English",
    "city": "迪拜",
    "country": "SA",
    "lat": 24.71,
    "lng": 46.68,
    "url": "https://live.alarabiya.net/alarabiapublish/english/playlist_dvr.m3u8",
    "width": 1920,
    "height": 1080,
    "streamType": "hls",
    "refreshSec": 0,
    "num": 18,
    "live": true
  },
  {
    "id": "jo-alsharqiya",
    "name": "📡 Al-Sharqiya News",
    "city": "安曼",
    "country": "JO",
    "lat": 31.95,
    "lng": 35.93,
    "url": "https://5d94523502c2d.streamlock.net/alsharqiyalive/mystream/playlist.m3u8",
    "width": 1920,
    "height": 1080,
    "streamType": "hls",
    "refreshSec": 0,
    "num": 18,
    "live": true
  },
  {
    "id": "gb-92news",
    "name": "📡 92 News HD",
    "city": "伦敦",
    "country": "GB",
    "lat": 51.51,
    "lng": -0.13,
    "url": "http://92news.vdn.dstreamone.net/92newshd/92hd/playlist.m3u8",
    "width": 1280,
    "height": 720,
    "streamType": "hls",
    "refreshSec": 0,
    "num": 18,
    "live": true
  },
  {
    "id": "ro-alephnews",
    "name": "📡 Aleph News",
    "city": "布加勒斯特",
    "country": "RO",
    "lat": 44.43,
    "lng": 26.1,
    "url": "https://stream-aleph.m.ro/Aleph/ngrp:Alephnewsmain.stream_all/playlist.m3u8",
    "width": 1280,
    "height": 720,
    "streamType": "hls",
    "refreshSec": 0,
    "num": 18,
    "live": true
  },
  {
    "id": "in-10tv",
    "name": "📺 10 TV India",
    "city": "海得拉巴",
    "country": "IN",
    "lat": 17.39,
    "lng": 78.49,
    "url": "https://mumbai-edge.smartplaytv.in/10TV/index.m3u8",
    "width": 1280,
    "height": 720,
    "streamType": "hls",
    "refreshSec": 0,
    "num": 18,
    "live": true
  },
  {
    "id": "in-abn-andhra",
    "name": "📡 ABN Andhra Jyoti",
    "city": "海得拉巴",
    "country": "IN",
    "lat": 17.39,
    "lng": 78.49,
    "url": "https://mumbai-edge.smartplaytv.in/ABNAJ/index.m3u8",
    "width": 1280,
    "height": 720,
    "streamType": "hls",
    "refreshSec": 0,
    "num": 18,
    "live": true
  },
  {
    "id": "br-agromais",
    "name": "🌾 AgroMais 巴西农业",
    "city": "圣保罗",
    "country": "BR",
    "lat": -23.55,
    "lng": -46.63,
    "url": "http://45.162.64.114/AGROMAIS/index.m3u8",
    "width": 1280,
    "height": 720,
    "streamType": "hls",
    "refreshSec": 0,
    "num": 18,
    "live": true
  },
  {
    "id": "us-30a-gh",
    "name": "🎬 30A Georgia Hollywood",
    "city": "圣罗莎海滩",
    "country": "US",
    "lat": 30.33,
    "lng": -86.22,
    "url": "https://30a-tv.com/gh.m3u8",
    "width": 1280,
    "height": 720,
    "streamType": "hls",
    "refreshSec": 0,
    "num": 18,
    "live": true
  },
  {
    "id": "mx-acustik",
    "name": "🎵 Acustik TV 墨西哥",
    "city": "墨西哥城",
    "country": "MX",
    "lat": 19.43,
    "lng": -99.13,
    "url": "https://s5.mexside.net:1936/clientetv/clientetv/playlist.m3u8",
    "width": 1280,
    "height": 720,
    "streamType": "hls",
    "refreshSec": 0,
    "num": 18,
    "live": true
  },
  {
    "id": "cn-jinyun1",
    "name": "🏞️ 缙云 · 城市风光",
    "city": "缙云",
    "country": "CN",
    "lat": 28.66,
    "lng": 120.09,
    "url": "https://l.cztvcloud.com/channels/lantian/SXjinyun1/720p.m3u8",
    "refreshSec": 99,
    "width": 1280,
    "height": 720,
    "streamType": "hls"
  },
  {
    "id": "cn-jinyun2",
    "name": "🏞️ 缙云 · 风光2号机",
    "city": "缙云",
    "country": "CN",
    "lat": 28.66,
    "lng": 120.42,
    "url": "https://l.cztvcloud.com/channels/lantian/SXjinyun2/720p.m3u8",
    "refreshSec": 99,
    "width": 1280,
    "height": 720,
    "streamType": "hls"
  },
  {
    "id": "cn-jinyun3",
    "name": "🏞️ 缙云 · 风光3号机",
    "city": "缙云",
    "country": "CN",
    "lat": 28.94,
    "lng": 120.09,
    "url": "https://l.cztvcloud.com/channels/lantian/SXjinyun3/720p.m3u8",
    "refreshSec": 99,
    "width": 1280,
    "height": 720,
    "streamType": "hls"
  },
  {
    "id": "cn-longquan",
    "name": "⛰️ 龙泉 · 城市风光",
    "city": "龙泉",
    "country": "CN",
    "lat": 28.07,
    "lng": 119.14,
    "url": "https://l.cztvcloud.com/channels/lantian/SXlongquan1/720p.m3u8",
    "refreshSec": 99,
    "width": 1280,
    "height": 720,
    "streamType": "hls"
  },
  {
    "id": "cn-longyou1",
    "name": "🏞️ 龙游 · 城市风光",
    "city": "龙游",
    "country": "CN",
    "lat": 29.03,
    "lng": 119.17,
    "url": "https://l.cztvcloud.com/channels/lantian/SXlongyou1/720p.m3u8",
    "refreshSec": 99,
    "width": 1280,
    "height": 720,
    "streamType": "hls"
  },
  {
    "id": "cn-longyou2",
    "name": "🏞️ 龙游 · 风光2号机",
    "city": "龙游",
    "country": "CN",
    "lat": 29.03,
    "lng": 118.84,
    "url": "https://l.cztvcloud.com/channels/lantian/SXlongyou2/720p.m3u8",
    "refreshSec": 99,
    "width": 1280,
    "height": 720,
    "streamType": "hls"
  },
  {
    "id": "cn-pinghu1",
    "name": "🌊 平湖 · 城市风光",
    "city": "平湖",
    "country": "CN",
    "lat": 30.68,
    "lng": 121.02,
    "url": "https://l.cztvcloud.com/channels/lantian/SXpinghu1/720p.m3u8",
    "refreshSec": 99,
    "width": 1280,
    "height": 720,
    "streamType": "hls"
  },
  {
    "id": "cn-pinghu4",
    "name": "🌊 平湖 · 风光4号机",
    "city": "平湖",
    "country": "CN",
    "lat": 30.68,
    "lng": 120.72,
    "url": "https://l.cztvcloud.com/channels/lantian/SXpinghu4/720p.m3u8",
    "refreshSec": 99,
    "width": 1280,
    "height": 720,
    "streamType": "hls"
  },
  {
    "id": "cn-qingtian",
    "name": "🏞️ 青田 · 城市风光",
    "city": "青田",
    "country": "CN",
    "lat": 28.14,
    "lng": 120.29,
    "url": "https://l.cztvcloud.com/channels/lantian/SXqingtian1/720p.m3u8",
    "refreshSec": 99,
    "width": 1280,
    "height": 720,
    "streamType": "hls"
  },
  {
    "id": "cn-shangyu2",
    "name": "🏙️ 上虞 · 风光2号机",
    "city": "上虞",
    "country": "CN",
    "lat": 30.03,
    "lng": 121.2,
    "url": "https://l.cztvcloud.com/channels/lantian/SXshangyu2/720p.m3u8",
    "refreshSec": 99,
    "width": 1280,
    "height": 720,
    "streamType": "hls"
  },
  {
    "id": "cn-shangyu3",
    "name": "🏙️ 上虞 · 风光3号机",
    "city": "上虞",
    "country": "CN",
    "lat": 30.33,
    "lng": 121.04,
    "url": "https://l.cztvcloud.com/channels/lantian/SXshangyu3/720p.m3u8",
    "refreshSec": 99,
    "width": 1280,
    "height": 720,
    "streamType": "hls"
  },
  {
    "id": "cn-shengzhou",
    "name": "🏞️ 嵊州 · 城市风光",
    "city": "嵊州",
    "country": "CN",
    "lat": 29.59,
    "lng": 120.82,
    "url": "https://l.cztvcloud.com/channels/lantian/SXshengzhou1/720p.m3u8",
    "refreshSec": 99,
    "width": 1280,
    "height": 720,
    "streamType": "hls"
  },
  {
    "id": "cn-songyang",
    "name": "🏡 松阳 · 城市风光",
    "city": "松阳",
    "country": "CN",
    "lat": 28.45,
    "lng": 119.48,
    "url": "https://l.cztvcloud.com/channels/lantian/SXsongyang1/720p.m3u8",
    "refreshSec": 99,
    "width": 1280,
    "height": 720,
    "streamType": "hls"
  },
  {
    "id": "cn-xiangshan",
    "name": "⛵ 象山 · 城市风光",
    "city": "象山",
    "country": "CN",
    "lat": 29.48,
    "lng": 121.87,
    "url": "https://l.cztvcloud.com/channels/lantian/SXxiangshan1/720p.m3u8",
    "refreshSec": 99,
    "width": 1280,
    "height": 720,
    "streamType": "hls"
  },
  {
    "id": "cn-xiaoshan1",
    "name": "🌉 萧山 · 城市风光",
    "city": "萧山",
    "country": "CN",
    "lat": 30.19,
    "lng": 120.26,
    "url": "https://l.cztvcloud.com/channels/lantian/SXxiaoshan1/720p.m3u8",
    "refreshSec": 99,
    "width": 1280,
    "height": 720,
    "streamType": "hls"
  },
  {
    "id": "cn-xiaoshan2",
    "name": "🌉 萧山 · 风光2号机",
    "city": "萧山",
    "country": "CN",
    "lat": 30.19,
    "lng": 119.93,
    "url": "https://l.cztvcloud.com/channels/lantian/SXxiaoshan2/720p.m3u8",
    "refreshSec": 99,
    "width": 1280,
    "height": 720,
    "streamType": "hls"
  },
  {
    "id": "cn-yunhe1",
    "name": "🌄 云和 · 城市风光",
    "city": "云和",
    "country": "CN",
    "lat": 28.11,
    "lng": 119.57,
    "url": "https://l.cztvcloud.com/channels/lantian/SXyunhe1/720p.m3u8",
    "refreshSec": 99,
    "width": 1280,
    "height": 720,
    "streamType": "hls"
  },
  {
    "id": "cn-yunhe3",
    "name": "🌄 云和 · 风光3号机",
    "city": "云和",
    "country": "CN",
    "lat": 27.81,
    "lng": 119.57,
    "url": "https://l.cztvcloud.com/channels/lantian/SXyunhe3/720p.m3u8",
    "refreshSec": 99,
    "width": 1280,
    "height": 720,
    "streamType": "hls"
  },
  {
    "id": "cn-zhuji",
    "name": "🏞️ 诸暨 · 城市风光",
    "city": "诸暨",
    "country": "CN",
    "lat": 29.71,
    "lng": 120.24,
    "url": "https://l.cztvcloud.com/channels/lantian/SXzhuji3/720p.m3u8",
    "refreshSec": 99,
    "width": 1280,
    "height": 720,
    "streamType": "hls"
  },
  {
    "id": "cn-zhangjiajie",
    "name": "🏔️ 张家界 · 武陵源",
    "city": "张家界",
    "country": "CN",
    "lat": 29.12,
    "lng": 110.48,
    "url": "https://images.webcamgalore.com/10966-current-webcam-Zhangjiajie.jpg",
    "refreshSec": 15,
    "width": 1280,
    "height": 720,
    "streamType": "jpeg"
  },
  {
    "id": "cn-cctv1",
    "name": "📺 CCTV-1 综合",
    "city": "北京",
    "country": "CN",
    "lat": 39.9,
    "lng": 116.4,
    "url": "https://liveplay-srs.voc.com.cn/hls/tv/134_180adf.m3u8",
    "refreshSec": 99,
    "width": 1280,
    "height": 720,
    "streamType": "hls"
  },
  {
    "id": "cn-cctv15-1080p",
    "name": "📺 CCTV-15 音乐",
    "city": "北京",
    "country": "CN",
    "lat": 39.9,
    "lng": 116.7,
    "url": "https://xykt-fix.github.io/play/a02e/index.m3u8",
    "refreshSec": 99,
    "width": 1920,
    "height": 1080,
    "streamType": "hls"
  },
  {
    "id": "cn-cctv9",
    "name": "📺 CCTV-9 纪录",
    "city": "北京",
    "country": "CN",
    "lat": 39.9,
    "lng": 117.0,
    "url": "https://xykt-fix.github.io/Y77.m3u8",
    "refreshSec": 99,
    "width": 1920,
    "height": 1080,
    "streamType": "hls"
  },
  {
    "id": "cn-cgtn",
    "name": "🌐 CGTN 英语新闻",
    "city": "北京",
    "country": "CN",
    "lat": 39.9,
    "lng": 117.3,
    "url": "https://english-livebkali.cgtn.com/live/encgtn.m3u8",
    "refreshSec": 99,
    "width": 1920,
    "height": 1080,
    "streamType": "hls"
  },
  {
    "id": "cn-hunan",
    "name": "📺 湖南卫视",
    "city": "长沙",
    "country": "CN",
    "lat": 28.2,
    "lng": 113.0,
    "url": "https://liveplay-srs.voc.com.cn/hls/tv/135_180adf.m3u8",
    "refreshSec": 99,
    "width": 1280,
    "height": 720,
    "streamType": "hls"
  },
  {
    "id": "cn-guangzhou",
    "name": "📺 广州综合",
    "city": "广州",
    "country": "CN",
    "lat": 23.1,
    "lng": 113.3,
    "url": "https://liveplay-srs.voc.com.cn/hls/tv/138_180adf.m3u8",
    "refreshSec": 99,
    "width": 1280,
    "height": 720,
    "streamType": "hls"
  },
  {
    "id": "cn-breadtv",
    "name": "📺 面包台",
    "city": "香港",
    "country": "HK",
    "lat": 22.3,
    "lng": 114.2,
    "url": "https://video.bread-tv.com:8091/hls-live24/online/index.m3u8",
    "refreshSec": 99,
    "width": 1280,
    "height": 720,
    "streamType": "hls"
  },
  {
    "id": "cn-cndfilm",
    "name": "📺 中学生电影频道",
    "city": "北京",
    "country": "CN",
    "lat": 39.9,
    "lng": 117.6,
    "url": "http://live-play.zxstv.com.cn/zhongxuesheng/zhongxuesheng.m3u8",
    "refreshSec": 99,
    "width": 1280,
    "height": 720,
    "streamType": "hls"
  }
]